stop_id,stop_code,stop_name,stop_desc,stop_lat,stop_lon,zone_id,stop_url,location_type,parent_station,stop_timezone,wheelchair_boarding,platform_code
1001O00010C1,,Barão de Tefé,,-22.897488,-43.186627,,,0,,,,
1002O00010C0,,AquaRio,,-22.893310,-43.192600,,,0,,,,
1002O00013C0,,Hospital dos Servidores,,-22.895380,-43.187890,,,0,,,,
1003O00067C2,,Cidade do Samba,,-22.894509,-43.197401,,,0,,,,
1004O00003C0,,Monsenhor Manuel Gomes,,-22.888600,-43.220010,,,0,,,,
1004O00005C0,,Péter Lund,,-22.884640,-43.226500,,,0,,,,
1001O00006C0,,Sacadura Cabral,,-22.897310,-43.187370,,,0,,,,
1002O00007C0,,Jardins Suspensos do Valongo,,-22.898400,-43.187730,,,0,,,,
1002O00001C0,,Livramento,,-22.897970,-43.195400,,,0,,,,
1002O00004C0,,Mortona,,-22.895410,-43.196400,,,0,,,,
1002O00008C0,,Ladeira do Faria,,-22.900640,-43.192960,,,0,,,,
1003O00023C0,,Cidade do Samba,,-22.894510,-43.198069,,,0,,,,
1003O00017C0,,Santo Cristo,,-22.901242,-43.206571,,,0,,,,
1004O00008C0,,Brasil,,-22.883850,-43.225470,,,0,,,,
1004O00014C0,,Brasil,,-22.883430,-43.225950,,,0,,,,
1004O00009C9,,Creche Municipal Ladeira dos Funcionários,,-22.879491,-43.224601,,,0,,,,
1004O00013C0,,CIEP Henfil,,-22.876802,-43.218708,,,0,,,,
1003O00042C0,,CMS José Messias do Carmos,,-22.900666,-43.200768,,,0,,,,
1002O00012C2,,Moinho Fluminense,,-22.894498,-43.190443,,,0,,,,
1004O00018C0,,Ponto Final: Caju :: General Sampaio,,-22.877428,-43.216143,,,0,,,,
1003O00031C0,,Dinah de Queiroz :: Sentido Ponte / T. Gentileza / São Cristóvão,,-22.906314,-43.209542,,,0,,,,
1004O00006C0,,Bela,,-22.885460,-43.229080,,,0,,,,
1003O00029C0,,Comandante Garcia Pires :: Sentido São Cristóvão / Linha Vermelha,,-22.901252,-43.209690,,,0,,,,
1004O00026C0,,Estaleiro Inhaúma,,-22.874689,-43.210347,,,0,,,,
1003O00012C0,,Porto Maravalley,,-22.897611,-43.203760,,,0,,,,
1003O00033C0,,Parada Praia Formosa,,-22.902970,-43.208376,,,0,,,,
1003O00015C0,,Rodoviária do Rio,,-22.898842,-43.207794,,,0,,,,
1003O00016C0,,Cordeiro da Graça,,-22.897528,-43.205672,,,0,,,,
1005O00046C2,,Ponto Final: Candelária :: Linhas 324 e 329,,-22.902430,-43.181646,,,0,,,,
1005O00101C0,,Miguel Couto,,-22.900050,-43.181710,,,0,,,,
1005O00125C0,,Marrecas,,-22.911830,-43.178660,,,0,,,,
1005O00131C0,,São Bento,,-22.897980,-43.180860,,,0,,,,
1005O00135C0,,Treze de Maio,,-22.909900,-43.177010,,,0,,,,
1005O00142C0,,Ponto Final: Candelária :: Linha 343,,-22.902320,-43.181850,,,0,,,,
1005O00029S0,QOAL,"BRS 1,2,3: Beira Mar",,-22.910790,-43.171300,,,0,,,,
1005O00063S0,R729,"BRS 1,2,4: General Caldwell",,-22.909780,-43.191010,,,0,,,,
1005O00146S0,2BTM,"BRS 1,2,3,4,5,I: Cruz Vermelha",,-22.912400,-43.189380,,,0,,,,
1005O00020S0,P7C9,"BRS 1,4,5,I: Praça Tiradentes",,-22.907230,-43.182720,,,0,,,,
1005O00016S9,2DDJ,"BRS 1,2: Treze de Maio",,-22.908360,-43.177340,,,0,,,,
1004O00025C0,,Brasil,,-22.888207,-43.219215,,,0,,,,
1005O00043S9,I7DC,"BRS 2,3,4,I: Senado",,-22.911180,-43.192030,,,0,,,,
1005O00018S0,UOBK,"BRS 1,2,3,4,I: Santa Luzia",,-22.908530,-43.172250,,,0,,,,
1005O00152S0,ZFKL,"BRS 1,2,3,4,5,I: Erasmo Braga",,-22.905190,-43.173670,,,0,,,,
1004O00023C0,,Hospital Estadual Anchieta,,-22.875748,-43.222790,,,0,,,,
1004O00022C0,,Hospital Estadual Anchieta,,-22.875759,-43.222431,,,0,,,,
1005O00041C0,,Riachuelo,,-22.914480,-43.188430,,,0,,,,
1004O00019C9,,Creche Municipal Ladeira dos Funcionários,,-22.879428,-43.224736,,,0,,,,
1004O00021C9,,CIEP Henfil,,-22.876667,-43.219271,,,0,,,,
1004O00020C9,,General Gurjão,,-22.878081,-43.216041,,,0,,,,
1004O00024C0,,Parque de Material de Eletrônica da Aeronáutica,,-22.876400,-43.213810,,,0,,,,
1005O00059S0,MUL8,"BRS 1,3: Rua de Santana",,-22.906880,-43.195240,,,0,,,,
1005O00072C0,,Graças,,-22.915650,-43.188200,,,0,,,,
1005O00005P0,,Terminal Procópio Ferreira :: Plat. Central,,-22.904898,-43.192358,,,0,1005O00377T9,,,Central
1005O00140C0,,Praça dos Estivadores,,-22.899467,-43.187639,,,0,,,,
1005O00034S9,,Debret,,-22.907320,-43.173960,,,0,,,,
1005O00052S0,TNF3,BRS 5: Rio Branco,,-22.901430,-43.180090,,,0,,,,
1005O00155S0,TUGI,BRS 4: Rio Branco,,-22.901750,-43.181070,,,0,,,,
1005O00055S0,U2DE,"BRS 1,3: Uruguaiana",,-22.902100,-43.182164,,,0,,,,
1005O00031S0,U87M,BRS 2: Uruguaiana,,-22.902414,-43.183098,,,0,,,,
1005O00156S0,UCUD,BRS 2: Passos,,-22.903290,-43.185830,,,0,,,,
1005O00053S0,UZRH,BRS 5: Tomé de Sousa,,-22.903840,-43.187530,,,0,,,,
1005O00157S0,V5T9,"BRS 2,3: Praça da República",,-22.904460,-43.189460,,,0,,,,
1005O00033S0,VRRW,BRS 4: Central,,-22.905420,-43.192400,,,0,,,,
1005O00054S0,VUIH,BRS 5: Central,,-22.905730,-43.193370,,,0,,,,
1005L00022S0,VUWS,"BRS 1,2,3: Central",,-22.905910,-43.193950,,,0,,,,
1005O00069S0,UD56,BRS 4: Tomé de Sousa,,-22.903710,-43.187110,,,0,,,,
1005O00004S0,2FMS,"BRS 2,4: Central",,-22.905275,-43.192459,,,0,,,,
1005O00019S0,X314,"BRS 5,I: Central",,-22.906090,-43.193530,,,0,,,,
1005O00025S0,XAUT,"BRS 3,4: Central",,-22.905900,-43.192960,,,0,,,,
1005O00056S0,XM63,"BRS 1,2: Central",,-22.905410,-43.191450,,,0,,,,
1005O00064S0,XRRU,BRS 2B: Praça da República,,-22.904784,-43.189485,,,0,,,,
1005O00150S0,YKD7,"BRS 5,I: Praça da República",,-22.904540,-43.188760,,,0,,,,
1005O00026S9,YSVN,"BRS 3,4: Passos",,-22.903440,-43.185320,,,0,,,,
1005O00057S0,YSXN,"BRS 1,2,5: Passos",,-22.903190,-43.184560,,,0,,,,
1005O00027S0,2GPU,BRS 4: Central,,-22.905620,-43.191510,,,0,,,,
1005O00061S0,2H9J,"BRS 1,2,3: Praça da República",,-22.904810,-43.189000,,,0,,,,
1005O00094C0,,Aeroporto Santos Dumont,,-22.909880,-43.168460,,,0,,,,
1005O00013S0,MUVL,"BRS 4,5: Rua de Santana",,-22.906770,-43.194930,,,0,,,,
1005O00151S0,,Franklin Roosevelt,,-22.910264,-43.171781,,,0,,,,
1005O00068S0,,Almirante Barroso,,-22.907564,-43.172783,,,0,,,,
1005O00129P0,,Terminal Procópio Ferreira :: Plat. Norte,,-22.904565,-43.191892,,,0,1005O00377T9,,,Norte
1005O00076P0,,Terminal Rodoviário Menezes Cortes :: Plat. B,,-22.905406,-43.174822,,,0,tcxw,,,B
1005O00120C2,,Ponto Final: Candelária :: Linha 326,,-22.902564,-43.182057,,,0,,,,
1005O00164C0,,Ponto Regulador: Castelo :: Linha 006,,-22.908830,-43.174770,,,0,,,,
1005O00189C0,,Anfilófio de Carvalho,,-22.908430,-43.174650,,,0,,,,
1005O00190C0,,Ancine,,-22.909323,-43.174306,,,0,,,,
1005O00202C0,,Ponto Final: Castelo :: Linha 2114,,-22.904410,-43.175050,,,0,,,,
1005O00211C0,,Professor Clementino Fraga,,-22.908590,-43.195010,,,0,,,,
1005O00090C0,,Marechal Floriano,,-22.901620,-43.185280,,,0,,,,
1005O00215C0,,Costa Barros,,-22.914800,-43.189040,,,0,,,,
1005O00222C0,,Irineu Marinho,,-22.909250,-43.193500,,,0,,,,
1005O00223C0,,Igreja de Sant'Ana,,-22.907730,-43.193990,,,0,,,,
1005O00224C0,,Frederico Silva,,-22.907800,-43.192260,,,0,,,,
1005O00225C0,,Moncorvo Filho,,-22.909580,-43.191730,,,0,,,,
1005O00239C0,,Igreja de Santa Luzia,,-22.909900,-43.172660,,,0,,,,
1005O00143C0,,Central do Brasil,,-22.903070,-43.190830,,,0,,,,
1005O00243C0,,Castelo :: Linha 2110,,-22.904840,-43.175770,,,0,,,,
1005O00253C2,,Ponto Final: Castelo :: Linha 2111,,-22.904630,-43.175430,,,0,,,,
1005O00254C0,,Marrecas,,-22.913200,-43.177330,,,0,,,,
1005O00257C0,,CAIXA Cultural - BNDES,,-22.908730,-43.180330,,,0,,,,
1005O00258C0,,CAIXA Cultural - BNDES,,-22.908800,-43.180510,,,0,,,,
1005O00268T0,,Terminal Churchill,,-22.908913,-43.170618,,,1,,,,
1005O00360C2,,Ponto Final: Castelo :: Linha 306,,-22.905070,-43.176170,,,0,,,,
1005O00198C0,7M9B,"BRS 1,4: Buenos Aires",,-22.904400,-43.183320,,,0,,,,
1005O00197C0,7KKY,"BRS 2,3,5,I: Luis de Camões",,-22.905593,-43.182786,,,0,,,,
1005O00180C0,JG2L,"BRS 1,2,3,4,5,I: Uruguaiana",,-22.906640,-43.180060,,,0,,,,
1005O00181C0,JUCL,"BRS 1,2,3,4,5,I: Largo da Carioca",,-22.906490,-43.177640,,,0,,,,
1005O00231S0,QGWM,"BRS 4,I: Praça da República I",,-22.908640,-43.187720,,,0,,,,
1005O00238S0,2CZT,BRS 4: República do Paraguai,,-22.909000,-43.179260,,,0,,,,
1005O00184C0,,Ponto Final: Castelo :: Ônibus Executivos (Linhas para a Ilha do Governador),,-22.907050,-43.174040,,,0,,,,
1005O00193S9,JB4M,"BRS 1,2: Alfândega",,-22.902420,-43.178770,,,0,,,,
1005O00194S9,J4Z7,"BRS 1,2: Sete de Setembro",,-22.904670,-43.177930,,,0,,,,
1005O00249S0,ZGNU,"BRS 1,2,3,4,5,I: Ouvidor",,-22.902660,-43.175530,,,0,,,,
1005O00241C0,,Terreirão do Samba,,-22.907950,-43.195720,,,0,,,,
1005O00267P0,,Terminal Churchill :: Plataforma Norte,,-22.908874,-43.170562,,,0,1005O00268T0,,,Norte
1005O00218C0,,Academia Brasileira de Letras,,-22.910510,-43.172587,,,0,,,,
1005O00212C0,,ACADEPOL - Academia de Polícia,,-22.910600,-43.193920,,,0,,,,
1005O00259C0,,Catedral Metropolitana,,-22.909364,-43.180294,,,0,,,,
1005O00248C0,,Senado,,-22.910730,-43.188238,,,0,,,,
1005O00364C0,,Ponto Regulador: Castelo :: Linha 265,,-22.908115,-43.170819,,,0,,,,
1005O00367C2,,Ponto Final: Candelária :: Linhas para Zona Norte,,-22.902005,-43.180841,,,0,,,,
1005O00158S0,2EZV,"BRS 4,5: Tomé de Sousa",,-22.903662,-43.187524,,,0,,,,
1005O00159S0,2FFC,"BRS 1,2,3: Tomé de Sousa",,-22.903820,-43.188060,,,0,,,,
1005O00246S0,2GLS,"BRS 1,2,3: Central",,-22.905862,-43.192264,,,0,,,,
1005O00359S0,2H5W,"BRS 5,I: Praça da República",,-22.905052,-43.189782,,,0,,,,
1005O00199C0,,Parada São Bento,,-22.899150,-43.179990,,,0,,,,
1005O00192C0,,Presidente Vargas,,-22.900540,-43.179480,,,0,,,,
1005O00250C0,,Visconde de Inhaúma,,-22.899480,-43.177080,,,0,,,,
1005O00242P0,,Terminal Churchill :: Plataforma Sul,,-22.908986,-43.170703,,,0,1005O00268T0,,,Sul
1005O00263P0,,Terminal Procópio Ferreira :: Plat. Sul,,-22.904988,-43.192317,,,0,1005O00377T9,,,Sul
1005O00228C0,,Terminal Jamil Amiden :: Linhas 217 e 249,,-22.908810,-43.179380,,,0,,,,
1005O00236C0,,Terminal Jamil Amiden :: Ônibus Executivos,,-22.909170,-43.180480,,,0,,,,
1005O00172C0,,Ponto Final: Praça Tiradentes,,-22.907310,-43.183000,,,0,,,,
1005O00227C0,,Terminal Jamil Amiden :: Linha 229,,-22.908370,-43.178130,,,0,,,,
1005O00361C0,,Ponto Final: Castelo :: Linha 361,,-22.905260,-43.176480,,,0,,,,
1005O00369C2,,Ponto Final: Candelária :: Linha 328,,-22.902674,-43.182390,,,0,,,,
1005O00372C1,,Ponto Final: Candelária :: Linha 369,,-22.901438,-43.180650,,,0,,,,
1005O00377T9,,Terminal Procópio Ferreira,,-22.904806,-43.192141,,,1,,,,
1005O00260C0,,Franklin Roosevelt :: Pista Esquerda,,-22.909570,-43.170460,,,0,,,,
1005O00208C0,,Franklin Roosevelt :: Pista Direita,,-22.909520,-43.170670,,,0,,,,
1005O00370C1,,Ponto Final: Candelária :: Linhas 388 e SR388,,-22.901944,-43.182203,,,0,,,,
1006O00013S9,2BF2,"BRS 1,2,3,4,I: Marquês de Sapucaí",,-22.914230,-43.196330,,,0,,,,
1007O00025C0,,Professor Quintino do Vale,,-22.917860,-43.209220,,,0,,,,
1007O00009C0,,Barão de Sertório,,-22.920590,-43.212750,,,0,,,,
1007O00063C0,,Conselheiro Barros,,-22.922680,-43.214010,,,0,,,,
1007O00020C0,,Itapiru,,-22.925550,-43.205130,,,0,,,,
1007O00064C0,,Casa de Portugal,,-22.924800,-43.211720,,,0,,,,
1007O00014C0,,Hospital Alemão do Amparo,,-22.926160,-43.204900,,,0,,,,
1006O00010C0,,Coroa,,-22.922270,-43.197260,,,0,,,,
1007O00077C0,,Helênico Atlético Clube,,-22.925151,-43.203004,,,0,,,,
1007O00040C0,,Galvão,,-22.925130,-43.199610,,,0,,,,
1007O00074C0,,Vila Anchieta,,-22.928348,-43.203432,,,0,,,,
1006O00008C0,,Fallet,,-22.924140,-43.198490,,,0,,,,
1006O00018C0,,Coroa,,-22.922234,-43.197393,,,0,,,,
1006O00007C0,,Doutor Agra,,-22.920230,-43.196610,,,0,,,,
1006O00011C0,,Itapiru,,-22.920500,-43.195910,,,0,,,,
1006O00009C0,,Fallet,,-22.923570,-43.197900,,,0,,,,
1007O00024C0,,Edifício Jardim Tijuca,,-22.919920,-43.208580,,,0,,,,
1007O00030C0,,Paula Ramos,,-22.933590,-43.209240,,,0,,,,
1007O00021C0,,Costa Ferraz,,-22.923657,-43.206368,,,0,,,,
1007O00032C0,,Caetano Martins,,-22.923900,-43.204500,,,0,,,,
1007O00076C0,,Igreja Batista Shalom,,-22.925151,-43.201223,,,0,,,,
1005O00376S2,2J8F,"BRS 1,4: Passos",,-22.903617,-43.185315,,,0,,,,
1007O00031C0,,Helênico Atlético Clube,,-22.924970,-43.202990,,,0,,,,
1006O00006C0,,Cemitério São Francisco de Paula,,-22.919070,-43.195730,,,0,,,,
1006O00004C0,,Catumbi,,-22.917070,-43.195430,,,0,,,,
1006O00015C0,,Itapiru,,-22.916180,-43.194520,,,0,,,,
1006O00016C0,,Frei Caneca,,-22.914663,-43.195969,,,0,,,,
1006O00017C0,,Itapiru,,-22.916600,-43.195210,,,0,,,,
1007O00075C0,,Torre de Furnas,,-22.927058,-43.208334,,,0,,,,
1006O00012C0,,Praça Jardineira,,-22.919750,-43.194386,,,0,,,,
1007O00015C0,,Vila Anchieta,,-22.928232,-43.203643,,,0,,,,
1007O00039C0,,Igreja Batista Shalom,,-22.925285,-43.201492,,,0,,,,
1007O00057C0,,Hospital Central do Corpo de Bombeiros,,-22.931356,-43.208737,,,0,,,,
1005O00375S2,2JHG,"BRS 2,3,5,I: Passos",,-22.903332,-43.184461,,,0,,,,
1005O00374C2,,Comando Aéreo Leste,,-22.908598,-43.168241,,,0,,,,
1007O00022C0,,Aristides Lobo,,-22.923420,-43.207860,,,0,,,,
1007O00019C0,,Flor de Maio,,-22.929946,-43.201885,,,0,,,,
1008O00017C0,,Pinto de Azevedo,,-22.912297,-43.204420,,,0,,,,
1008O00038C0,,Marquês de Sapucaí,,-22.908610,-43.197950,,,0,,,,
1009O00007C0,,Emilia Guimarães,,-22.915970,-43.196510,,,0,,,,
1007O00052C0,,Batista das Neves,,-22.917770,-43.210180,,,0,,,,
1007O00051C0,,Batista das Neves,,-22.917970,-43.209870,,,0,,,,
fc04,,Arroio Fundo,,-22.958153,-43.358380,,,0,,,,
1007O00049C0,,Barão de Itapagipe,,-22.919430,-43.209790,,,0,,,,
1007O00068C0,,Antônio Pedro Galiazzi,,-22.920919,-43.209982,,,0,,,,
1007O00043C0,,Japeri,,-22.922610,-43.211130,,,0,,,,
1007O00042C0,,Cândido de Oliveira,,-22.926000,-43.208460,,,0,,,,
1007O00060C0,,Estrela,,-22.925820,-43.209420,,,0,,,,
1007O00070C0,,Bispo,,-22.925880,-43.209720,,,0,,,,
1007O00056C0,,Hospital Central do Corpo de Bombeiros,,-22.931560,-43.209220,,,0,,,,
1007O00055C0,,Condomínio do Edifício Chácara Rio,,-22.929680,-43.209260,,,0,,,,
2036O00061C0,,Praça Varnhagen,,-22.920320,-43.235300,,,0,,,,
1007O00058C0,,Condomínio do Edifício Chácara Rio,,-22.929610,-43.208960,,,0,,,,
1007O00059C0,,Unicarioca,,-22.927730,-43.209300,,,0,,,,
1009O00006S9,JVTF,"BRS 1,2,3,4,6: Paulo de Frontin",,-22.915470,-43.209470,,,0,,,,
1007O00054C0,,Unicarioca,,-22.927440,-43.209620,,,0,,,,
1007O00071C0,,Ponto Final: Rio Comprido :: Praça Condessa Paulo de Frontin (Linha 711),,-22.924380,-43.208800,,,0,,,,
1007O00044C0,,Ponto Final: Rio Comprido :: Sampaio Viana,,-22.923710,-43.212310,,,0,,,,
1010O00034C0,,Ceará,,-22.907570,-43.218430,,,0,,,,
1008O00034C0,,Santa Maria,,-22.911430,-43.199560,,,0,,,,
1007O00066C0,,Sampaio Viana,,-22.922492,-43.209598,,,0,,,,
1007O00037C0,,"Santa Alexandrina, 565",,-22.929656,-43.208505,,,0,,,,
1008O00042C0,CMN0,Metrô Estácio,,-22.912670,-43.206110,,,0,,,,
1008O00035C0,,Frei Caneca,,-22.913760,-43.199510,,,0,,,,
1008O00018S0,ZJ6W,"BRS 1,2,3: Praça Onze",,-22.908180,-43.199310,,,0,,,,
1007O00073C0,,Dom Joaquim Mamede,,-22.938429,-43.207107,,,0,,,,
1007O00046C0,,Ponto Final: Santa Alexandrina :: 201,,-22.934843,-43.209949,,,0,,,,
1008O00023S0,W6SL,"BRS 4,5: Praça Onze",,-22.907601,-43.199440,,,0,,,,
1008O00024S0,WAMS,"BRS 1,2,3: Praça Onze",,-22.908045,-43.200742,,,0,,,,
1008O00025S0,WKFC,"BRS 4,5: Cidade Nova",,-22.909634,-43.205798,,,0,,,,
1008O00006S0,WWP8,"BRS 1,2,3: Cidade Nova",,-22.909737,-43.206137,,,0,,,,
1008O00026S0,2DLW,"BRS 3,5: Praça Onze",,-22.907500,-43.199520,,,0,,,,
1008O00001S0,2DP2,BRS 4: Praça Onze,,-22.907690,-43.200110,,,0,,,,
1008O00027S0,2DT8,"BRS 1,2,3: Praça Onze",,-22.907940,-43.200890,,,0,,,,
1008O00002S0,2E2W,"BRS 2,4: Cidade Nova",,-22.909508,-43.205978,,,0,,,,
1008O00030S0,2E6G,"BRS 1,3,5: Cidade Nova",,-22.909665,-43.206426,,,0,,,,
1008O00005S0,X3XI,"BRS 4,5: Praça Onze",,-22.908619,-43.201048,,,0,,,,
1008O00007S0,X6AG,"BRS 1,2,3: Praça Onze",,-22.907874,-43.198750,,,0,,,,
1008O00003S2,2K5Z,"BRS 1,3,5: Cidade Nova",,-22.910283,-43.205532,,,0,,,,
1008O00017S0,MN1E,"BRS 2,4: Cidade Nova",,-22.910168,-43.205172,,,0,,,,
1008O00004S0,MUGZ,"BRS 4,5: Praça Onze",,-22.907860,-43.198280,,,0,,,,
1008O00036C0,,Visconde de Duprat,,-22.910322,-43.203595,,,0,,,,
1010O00021C0,,INTO,,-22.894790,-43.215420,,,0,,,,
1008O00033C0,,Metrô Praça Onze,,-22.909741,-43.200200,,,0,,,,
1010O00037C0,,Igrejinha,,-22.896379,-43.213767,,,0,,,,
1010O00043C0,,Vieira Bueno,,-22.894020,-43.228700,,,0,,,,
1010O00065C0,,Eduardo Prado,,-22.906940,-43.215790,,,0,,,,
1010O00070C9,,Largo da Cancela,,-22.900520,-43.225030,,,0,,,,
1010O00075C0,,Fonseca Teles,,-22.902500,-43.218140,,,0,,,,
1010O00100C0,,Praça Virgilio de Melo Franco,,-22.904526,-43.219472,,,0,,,,
1010O00049C0,,Benedito Otoni,,-22.896920,-43.216720,,,0,,,,
1009O00016C0,,Joaquim Palhares,,-22.913358,-43.209750,,,0,,,,
1010O00047C0,,Monsenhor Manuel Gomes,,-22.890400,-43.218910,,,0,,,,
1010O00079C0,,Figueira de Melo,,-22.904110,-43.216110,,,0,,,,
1010O00080C0,,Gotemburgo,,-22.903410,-43.214490,,,0,,,,
1010O00082C0,,Melo e Souza,,-22.902330,-43.212500,,,0,,,,
1010O00081C0,,Francisco Bicalho,,-22.902025,-43.210979,,,0,,,,
1010O00020C0,,Francisco Eugênio,,-22.906170,-43.210250,,,0,,,,
1010O00046C0,,Parque,,-22.904030,-43.222670,,,0,,,,
1010O00092C0,,Chantecler,,-22.900010,-43.234537,,,0,,,,
1010O00066C0,,Desembargador Frederico Sussekind,,-22.900648,-43.232294,,,0,,,,
1010O00112C9,,Avenida do Exército :: Sentido Centro,,-22.900300,-43.223247,,,0,,,,
1010O00137C0,,Avenida do Exército :: Sentido Tijuca,,-22.900754,-43.223660,,,0,,,,
1010O00064C9,,Desembargador Frederico Sussekind,,-22.900450,-43.232580,,,0,,,,
1010O00067C9,,São Luiz Gonzaga,,-22.900220,-43.230030,,,0,,,,
1007O00053C0,,Condessa Paulo de Frontin,,-22.923960,-43.209830,,,0,,,,
1007O00061C0,,Condessa Paulo de Frontin,,-22.924000,-43.209520,,,0,,,,
1010O00105C0,,Quinta D'Or,,-22.907350,-43.221704,,,0,,,,
1010O00136C0,,Liberdade,,-22.898891,-43.227726,,,0,,,,
1010O00061C0,,Chaves Faria,,-22.899862,-43.226297,,,0,,,,
1010O00059C9,,Pedro Lobianco,,-22.900040,-43.223810,,,0,,,,
1010O00109C0,,Santos Lima,,-22.897982,-43.217549,,,0,,,,
1010O00058C0,,Escobar,,-22.897960,-43.218230,,,0,,,,
1010O00086C0,,Vinte e Cinco de Março,,-22.895850,-43.218930,,,0,,,,
1010O00107C0,,Praça Virgilio de Melo Franco,,-22.904907,-43.218901,,,0,,,,
1010O00083C0,,Figueira de Melo,,-22.903830,-43.216250,,,0,,,,
1010O00096C0,,Estádio Figueira de Melo,,-22.905180,-43.214246,,,0,,,,
1010O00084C0,,Zeferino de Oliveira,,-22.899300,-43.216640,,,0,,,,
1009O00009S9,2AEX,"BRS 1,2,3,4,5,6,I: Sampaio Ferraz",,-22.915640,-43.208080,,,0,,,,
1012O00027C0,,Hospital Central do Exército,,-22.894950,-43.242790,,,0,,,,
1014O00001C0,,Igreja Nossa Senhora das Neves,,-22.916200,-43.191750,,,0,,,,
1014O00015C0,,Escadinhas de Santa Tereza,,-22.916710,-43.181920,,,0,,,,
1010O00055C0,,Campo de São Cristóvão,,-22.899433,-43.222963,,,0,,,,
1014O00010C0,,Riachuelo,,-22.914270,-43.181820,,,0,,,,
1014O00004C0,,Áurea,,-22.920570,-43.189680,,,0,,,,
1014O00002C0,,Costa Bastos,,-22.916980,-43.190620,,,0,,,,
1014O00006C0,,"Joaquim Murtinho, 769",,-22.917220,-43.184490,,,0,,,,
1014O00017C0,,"Joaquim Murtinho, 654",,-22.916040,-43.184270,,,0,,,,
1014O00007C0,,"Joaquim Murtinho, 641",,-22.916110,-43.184160,,,0,,,,
1014O00016C0,,"Joaquim Murtinho, 514",,-22.916233,-43.182977,,,0,,,,
1010O00077C0,,Praça Professora Alice Brasil,,-22.909310,-43.226310,,,0,,,,
1010O00071C0,,São Cristóvão,,-22.900610,-43.217460,,,0,,,,
1012O00046C0,,São Luiz Gonzaga,,-22.897954,-43.237343,,,0,,,,
1010O00103C0,,Estação São Cristóvão :: Norte,,-22.909238,-43.222916,,,0,,,,
1012O00040C0,,Dom Hélder Câmara,,-22.888910,-43.244451,,,0,,,,
1012O00047C0,,Senador Domício Barreto,,-22.891020,-43.236810,,,0,,,,
1012O00048C0,,Praça Padre Souza,,-22.889400,-43.234820,,,0,,,,
1010O00050C0,,Brasil,,-22.895780,-43.215210,,,0,,,,
1012O00024C0,,Capitão Félix,,-22.890590,-43.234550,,,0,,,,
1010O00054C0,,Centro de Tradições Nordestinas - Acesso Padre Cícero,,-22.897160,-43.221960,,,0,,,,
1010O00062C9,,São Luiz Gonzaga,,-22.899950,-43.229544,,,0,,,,
1010O00057C0,,Centro de Tradições Nordestinas - Acesso Luiz Gonzaga,,-22.898528,-43.219336,,,0,,,,
1010O00068C9,,Emancipação,,-22.899786,-43.228369,,,0,,,,
1010O00072C0,,Pedro II,,-22.904485,-43.214703,,,0,,,,
1010O00073C0,,Hermes Fontes,,-22.901864,-43.216433,,,0,,,,
1010O00038C0,,Escola Municipal Marechal Trompowsky,,-22.908374,-43.231002,,,0,,,,
1011O00013C0,,Hospital Municipal Barata Ribeiro,,-22.900272,-43.240780,,,0,,,,
1012O00044C0,,Aloysio Amancio,,-22.890670,-43.241930,,,0,,,,
1012O00009C1,,Santo Antônio,,-22.885330,-43.252210,,,0,,,,
1012O00043C0,,Largo de Benfica,,-22.891622,-43.240485,,,0,,,,
1012O00037C0,,São Luiz Gonzaga,,-22.894060,-43.239860,,,0,,,,
1012O00034C0,,Pereira Lopes,,-22.894430,-43.238660,,,0,,,,
1012O00033C0,,Marechal Aguiar,,-22.896180,-43.236880,,,0,,,,
1012O00038C0,,Prefeito Olímpio de Melo,,-22.895560,-43.240110,,,0,,,,
1012O00025C0,,Praça Natividade Saldanha,,-22.895430,-43.240510,,,0,,,,
1012O00045C0,,Joana Alves,,-22.896090,-43.240600,,,0,,,,
1012O00039C0,,Itapoã,,-22.897880,-43.240490,,,0,,,,
1012O00035C9,,Abdon Milanez,,-22.898993,-43.239452,,,0,,,,
1011O00008C0,,Poteri,,-22.905917,-43.239234,,,0,,,,
1012O00028C0,,Ponto Final: Triagem,,-22.895900,-43.243670,,,0,,,,
1011O00004C0,,GRES Estação Primeira de Mangueira,,-22.902650,-43.240980,,,0,,,,
1011O00009C0,,Agenor de Oliveira,,-22.904788,-43.240031,,,0,,,,
1012O00032C0,,General Gustavo Cordeiro de Farias,,-22.897413,-43.236747,,,0,,,,
1012O00031C0,,Largo do Pedregulho,,-22.898880,-43.235900,,,0,,,,
1011O00012C9,,Chantecler,,-22.900175,-43.234575,,,0,,,,
1012O00036C9,,Largo do Pedregulho,,-22.899050,-43.236630,,,0,,,,
1014O00094C0,,"Joaquim Murtinho, 802",,-22.917256,-43.184634,,,0,,,,
1014O00058C0,,Doutor Júlio Otoni,,-22.934905,-43.199917,,,0,,,,
1014O00019C0,,Santa Cristina,,-22.920770,-43.184860,,,0,,,,
1014O00063C0,,Largo do Guimarães,,-22.921671,-43.186035,,,0,,,,
1011O00006C0,,Residencial Mangueira I e II,,-22.908594,-43.234549,,,0,,,,
1014O00087C0,,Professor Mauriti Santos,,-22.942413,-43.207874,,,0,,,,
1014O00055C0,,Condomínio Equitativa,,-22.937636,-43.204540,,,0,,,,
aprf,,Engenho Velho,,-22.913173,-43.388180,,,0,,,,
1010O00040C0,,Quinta D'Or,,-22.906357,-43.220639,,,0,,,,
1014O00031C0,,Corpo de Bombeiros Santa Teresa,,-22.936767,-43.203838,,,0,,,,
1014O00066C0,,Escadinhas de Santa Tereza,,-22.916791,-43.181623,,,0,,,,
1011O00003C0,,Condomínio Mangueira II,,-22.908830,-43.233200,,,0,,,,
1014O00018C0,,Escondidinho,,-22.931930,-43.201444,,,0,,,,
1011O00001C0,,Museu do Samba,,-22.901380,-43.241176,,,0,,,,
1014O00023C0,,Fonseca Guimarães,,-22.921133,-43.186970,,,0,,,,
1014O00054C0,,Dom Joaquim Mamede,,-22.938539,-43.207118,,,0,,,,
1014O00083C0,,Dois Irmãos,,-22.935146,-43.201332,,,0,,,,
1014O00032C0,,Dois Irmãos,,-22.935190,-43.201090,,,0,,,,
1014O00072C0,,"Joaquim Murtinho, 711",,-22.916656,-43.184619,,,0,,,,
1014O00082C0,,Doutor Júlio Otoni,,-22.934637,-43.199661,,,0,,,,
1014O00110C0,,Morro São Judas Tadeu,,-22.932541,-43.197711,,,0,,,,
1014O00080C0,,Vila Santa Cecília,,-22.931587,-43.196424,,,0,,,,
1014O00043C0,,Casa de Saúde São João de Deus,,-22.932130,-43.197370,,,0,,,,
1014O00059C0,,Vista Alegre,,-22.928069,-43.193748,,,0,,,,
1014O00106C0,,Vista Alegre,,-22.928035,-43.193927,,,0,,,,
1014O00041C0,,Hospital de Clínicas IV Centenário,,-22.927040,-43.192300,,,0,,,,
1014O00042C0,,"Almirante Alexandrino, 1862",,-22.927299,-43.192879,,,0,,,,
1014O00036C0,,"Almirante Alexandrino, 1908",,-22.927530,-43.193340,,,0,,,,
1014O00039C0,,Leopoldo de Fróis,,-22.924740,-43.189420,,,0,,,,
1014O00040C0,,"Almirante Alexandrino, 1548",,-22.925520,-43.190510,,,0,,,,
1014O00037C0,,Arão Reis,,-22.924970,-43.189760,,,0,,,,
1014O00025C0,,CMS Ernani Agricola,,-22.921140,-43.189350,,,0,,,,
1014O00026C0,,Travessa Oriente,,-22.918939,-43.190601,,,0,,,,
1014O00003C0,,Travessa Oriente,,-22.918600,-43.190620,,,0,,,,
1014O00027C0,,"Oriente, 23A",,-22.917530,-43.190130,,,0,,,,
1014O00028C0,,Costa Bastos,,-22.916650,-43.190920,,,0,,,,
1014O00029C0,,Paula Matos,,-22.915280,-43.190870,,,0,,,,
1014O00074C0,,"Joaquim Murtinho, 964",,-22.918126,-43.183967,,,0,,,,
1014O00035C0,,Largo do França,,-22.930036,-43.195481,,,0,,,,
1012O00011C0,,Leopoldo Bulhões,,-22.890046,-43.244457,,,0,,,,
1011O00007C0,,Estação Mangueira / Jamelão,,-22.907576,-43.237154,,,0,,,,
1012O00041C0,,Dom Hélder Câmara,,-22.889180,-43.244619,,,0,,,,
1014O00092C0,,Praça Paris,,-22.917399,-43.177216,,,0,,,,
1011O00002C0,,Estação Mangueira / Jamelão,,-22.907884,-43.236917,,,0,,,,
1012O00012C0,,Aloysio Amancio,,-22.890765,-43.242335,,,0,,,,
1012O00013C0,,Francisco Manuel,,-22.891768,-43.240794,,,0,,,,
1012O00022C0,,Lopes Trovão,,-22.892517,-43.236845,,,0,,,,
1012O00030C0,,Praça Natividade Saldanha,,-22.895310,-43.241030,,,0,,,,
1012O00042C0,,Largo de Benfica,,-22.891877,-43.239846,,,0,,,,
1014O00052C0,,Largo do Curvelo,,-22.918984,-43.183097,,,0,,,,
1014O00084C0,,Corpo de Bombeiros - Santa Teresa,,-22.936783,-43.204034,,,0,,,,
1012O00008C1,,Colégio Estadual Compositor Luiz Carlos da Vila,,-22.887018,-43.250415,,,0,,,,
1014O00112C0,,Escadaria dos Prazeres,,-22.935517,-43.202835,,,0,,,,
1014O00213C0,,Senado,,-22.912390,-43.192320,,,0,,,,
1158O00010C0,,Santo Antônio,,-22.886390,-43.226570,,,0,,,,
2015O00023C0,,Barão do Flamengo,,-22.932670,-43.174310,,,0,,,,
1161O00021S0,GEU7,"BRS 1,2,3,4,I: Inválidos",,-22.912410,-43.185410,,,0,,,,
1161O00020S0,CLN1,"BRS 1,2,3,4,I: Av. Mem de Sá",,-22.912949,-43.182542,,,0,,,,
1014O00089C0,,Ponto Final: Paula Matos,,-22.912870,-43.193220,,,0,,,,
1161O00019S0,2C4T,"BRS 1,2,4,5,I: Rua dos Inválidos",,-22.911290,-43.186210,,,0,,,,
1158O00012C0,,Ricardo Machado,,-22.889010,-43.224470,,,0,,,,
2015O00024C0,,Buarque de Macedo,,-22.928967,-43.173779,,,0,,,,
1161O00028C0,,Passeio,,-22.914010,-43.177100,,,0,,,,
1161O00017C0,,Relação,,-22.910798,-43.183919,,,0,,,,
1161O00018C0,,Riachuelo,,-22.913926,-43.182645,,,0,,,,
1158O00015C0,,Teixeira Junior,,-22.893868,-43.227453,,,0,,,,
1161O00023C0,,André Cavalcanti,,-22.914880,-43.185420,,,0,,,,
1161O00025C0,,Lavradio,,-22.913740,-43.181040,,,0,,,,
1161O00029C0,,Rezende,,-22.911380,-43.182430,,,0,,,,
2016O00015C0,,Ponto Final: Passeio :: Linhas para Pavuna,,-22.916058,-43.176554,,,0,,,,
2016O00019C0,,Praça Luiz de Camões,,-22.921150,-43.173800,,,0,,,,
1161O00024C0,,Inválidos,,-22.914449,-43.183434,,,0,,,,
2017O00023C0,,Consulado do Sri Lanka,,-22.934440,-43.192410,,,0,,,,
2017O00005C0,,Consulado do Sri Lanka,,-22.934650,-43.192110,,,0,,,,
2017O00020C0,,Laranjeiras,,-22.935795,-43.191116,,,0,,,,
1014O00046C0,,Condomínio Equitativa,,-22.937672,-43.204800,,,0,,,,
2017O00022C0,,"Alice, 922",,-22.934840,-43.191820,,,0,,,,
2017O00003C0,,EDI Professora Sarita Konder,,-22.936680,-43.195720,,,0,,,,
2017O00024C0,,Doutor Júlio Otoni,,-22.936460,-43.198860,,,0,,,,
1014O00128C0,,Túnel Rio Comprido,,-22.933712,-43.200521,,,0,,,,
2015O00022C0,,Tucumã,,-22.935440,-43.173992,,,0,,,,
2016O00040C0,,Joaquim Silva :: Pista Lateral,,-22.916004,-43.176333,,,0,,,,
2016O00030C0,,Metrô Glória,,-22.921125,-43.176433,,,0,,,,
2015O00058C0,,São Salvador,,-22.933860,-43.177380,,,0,,,,
2015O00063C0,,Cruz Lima,,-22.936985,-43.175730,,,0,,,,
2015O00059C0,,Fernando Osório,,-22.936124,-43.177336,,,0,,,,
2015O00061C0,,Clarice Índio do Brasil,,-22.939790,-43.178410,,,0,,,,
1014O00214C0,,"Doutor Júlio Otoni, 120",,-22.936424,-43.196482,,,0,,,,
1014O00215C0,,"Doutor Júlio Otoni, 244",,-22.934688,-43.195452,,,0,,,,
1014O00217C0,,Solar do Alto,,-22.934698,-43.197843,,,0,,,,
1014O00216C0,,Solar do Alto,,-22.934761,-43.197425,,,0,,,,
1014O00113C0,,"Almirante Alexandrino, 5286",,-22.944110,-43.207990,,,0,,,,
1014O00093C0,,Padre Miguelinho,,-22.917465,-43.194038,,,0,,,,
1014O00120C0,,Hospital de Clínicas IV Centenário,,-22.927086,-43.192173,,,0,,,,
1014O00130C0,,"Oriente, 371",,-22.920208,-43.189406,,,0,,,,
1014O00131C0,,"Oriente, 386",,-22.920023,-43.189631,,,0,,,,
1158O00003C0,,Ricardo Machado,,-22.888326,-43.231707,,,0,,,,
1158O00004C0,,Olímpio de Melo,,-22.889230,-43.231870,,,0,,,,
1158O00013C0,,General Bruce,,-22.897172,-43.226248,,,0,,,,
1158O00014C0,,General José Cristino,,-22.895604,-43.226822,,,0,,,,
1158O00007C0,,Club de Regatas Vasco da Gama,,-22.889350,-43.227750,,,0,,,,
1158O00006C0,,Club de Regatas Vasco da Gama,,-22.891640,-43.226910,,,0,,,,
1158O00002C0,,Club de Regatas Vasco da Gama,,-22.889811,-43.229453,,,0,,,,
1158O00008C0,,Ponto Final: São Januário,,-22.891283,-43.229098,,,0,,,,
1161O00027C0,,Passeio,,-22.914290,-43.177450,,,0,,,,
1014O00075C0,,Largo do Guimarães,,-22.921557,-43.186034,,,0,,,,
1014O00079C0,,Largo do França,,-22.929962,-43.195604,,,0,,,,
1014O00129C0,,Felício dos Santos,,-22.921152,-43.187191,,,0,,,,
1014O00069C0,,Francisco Muratori,,-22.915872,-43.181323,,,0,,,,
1161O00026C0,,Arcos da Lapa,,-22.913659,-43.179271,,,0,,,,
2015O00040C0,,Sady de Gusmão,,-22.940622,-43.176194,,,0,,,,
2015O00052C0,,Sady de Gusmão,,-22.939555,-43.176736,,,0,,,,
2015O00060C0,,Metrô Flamengo,,-22.936930,-43.177550,,,0,,,,
1158O00001C0,,Bela,,-22.885926,-43.228785,,,0,,,,
2016O00032C0,,Metrô Glória,,-22.921080,-43.176920,,,0,,,,
2018O00024C0,,Largo do Machado,,-22.930959,-43.177550,,,0,,,,
2015O00029C0,,Buarque de Macedo,,-22.929437,-43.174212,,,0,,,,
2015O00054C0,,Paissandu,,-22.934393,-43.175623,,,0,,,,
2015O00030C0,,Almirante Tamandaré,,-22.931876,-43.174496,,,0,,,,
2015O00035C0,,Cruz Lima,,-22.936477,-43.174110,,,0,,,,
2015O00034C0,,Tucumã,,-22.935323,-43.174301,,,0,,,,
2016O00053C0,,Cândido Mendes,,-22.919130,-43.176800,,,0,,,,
2015O00031C0,,Paissandu,,-22.933994,-43.174512,,,0,,,,
2015O00026C0,,Russel,,-22.925018,-43.172560,,,0,,,,
2016O00024C0,,Russel,,-22.924585,-43.172737,,,0,,,,
2015O00039C0,,Honório de Barros,,-22.939600,-43.174930,,,0,,,,
2018O00011C0,,Ponto Final: Largo do Machado (Rua do Catete),,-22.931537,-43.177512,,,0,,,,
2019O00008C0,,Ponto Final: Silvestre,,-22.945657,-43.207678,,,0,,,,
2019O00024C0,,Trem do Corcovado,,-22.940640,-43.197840,,,0,,,,
2019O00025C0,,Santuário São Judas Tadeu,,-22.940400,-43.198020,,,0,,,,
2019O00027C0,,Marechal Pires Ferreira,,-22.939080,-43.196160,,,0,,,,
2019O00028C0,,Marechal Pires Ferreira,,-22.939200,-43.196040,,,0,,,,
2019O00032T0,,Terminal do Cosme Velho,,-22.939840,-43.200080,,,1,,,,
2020O00050C0,,Passagem,,-22.951240,-43.182310,,,0,,,,
2020O00070C0,,Marechal Ramon Castilla,,-22.955760,-43.175630,,,0,,,,
2016O00055C0,,Calógeras,,-22.912168,-43.172982,,,0,,,,
2017O00043C0,,Soares Cabral,,-22.934750,-43.187820,,,0,,,,
2017O00056C0,,Laranjeiras,,-22.933430,-43.184480,,,0,,,,
2017O00052C0,,Ipiranga,,-22.932540,-43.182990,,,0,,,,
2017O00051C0,,Ministro Tavares de Lira,,-22.931710,-43.180520,,,0,,,,
2020O00078C0,,Real Grandeza,,-22.958270,-43.192644,,,0,,,,
2017O00048C0,,Senador Corrêa,,-22.933239,-43.180478,,,0,,,,
2017O00044C0,,Rumânia,,-22.938600,-43.194260,,,0,,,,
2019O00014C0,,"Almirante Alexandrino, 5272",,-22.943925,-43.208204,,,0,,,,
2017O00060C0,,"Alice, 1344",,-22.935167,-43.194338,,,0,,,,
2017O00059C0,,EDI Professora Sarita Konder,,-22.936652,-43.196086,,,0,,,,
2016O00051C9,,Praça Edson Cortes :: Pista Central,,-22.918213,-43.176786,,,0,,,,
2016O00052C9,,Praça Edson Cortes :: Pista Lateral,,-22.918109,-43.176622,,,0,,,,
2018O00028C0,,Santo Amaro,,-22.922540,-43.177250,,,0,,,,
2018O00027C0,,CIEP Presidente Trancredo Neves,,-22.923430,-43.177010,,,0,,,,
2018O00029C0,,Bento Lisboa,,-22.924550,-43.179120,,,0,,,,
2018O00030C0,,Silveira Martins,,-22.925820,-43.179450,,,0,,,,
2015O00025C0,,Jardins do Museu da República,,-22.926844,-43.173127,,,0,,,,
2015O00028C0,,Jardins do Museu da República,,-22.926818,-43.173413,,,0,,,,
2018O00026C0,,Museu da República,,-22.926650,-43.176540,,,0,,,,
2018O00031C0,,Tavares Bastos,,-22.927490,-43.179410,,,0,,,,
2018O00025C0,,Corrêa Dutra,,-22.928074,-43.176898,,,0,,,,
2018O00032C0,,Creche Municipal Aracy Guimarães Rosa,,-22.929080,-43.179440,,,0,,,,
2015O00057C0,,Consulado do Peru,,-22.939496,-43.170924,,,0,,,,
2015O00056C0,,Museu Carmem Miranda,,-22.941270,-43.172360,,,0,,,,
2017O00041C0,,Paróquia Cristo Redentor,,-22.938529,-43.192462,,,0,,,,
2017O00053C0,,Fluminense Football Club,,-22.936400,-43.183980,,,0,,,,
2016O00020C0,,Teixeira de Freitas,,-22.915388,-43.175119,,,0,,,,
2016O00021C0,,Augusto Severo,,-22.919513,-43.174922,,,0,,,,
2016O00022C0,,Hotel Glória,,-22.922629,-43.172233,,,0,,,,
2017O00045C0,,Paróquia Cristo Redentor,,-22.938459,-43.192961,,,0,,,,
2019O00011P0,,Terminal do Cosme Velho :: Plataforma A,,-22.939810,-43.199760,,,0,2019O00032T0,,,A
2019O00031P0,,Terminal do Cosme Velho :: Plataforma B,,-22.940030,-43.199880,,,0,2019O00032T0,,,B
2020O00043C0,,Conde de Irajá,,-22.957711,-43.194897,,,0,,,,
2020O00080C0,,General Cornélio de Barros,,-22.958710,-43.195732,,,0,,,,
2017O00046C0,,Cardoso Júnior,,-22.937760,-43.190500,,,0,,,,
2018O00010C0,,Ponto Final: Metrô Largo do Machado,,-22.930967,-43.178270,,,0,,,,
2020O00105C0,,Miranda Valverde,,-22.952839,-43.193624,,,0,,,,
2020O00106C0,,Visconde de Caravelas,,-22.956183,-43.192240,,,0,,,,
2020O00107C0,,Visconde de Silva,,-22.957146,-43.191830,,,0,,,,
2020O00108C0,,General Polidoro,,-22.957010,-43.189340,,,0,,,,
2020O00109C0,,Voluntários da Pátria,,-22.954170,-43.190640,,,0,,,,
2020O00115C0,,Universidade Santa Úrsula,,-22.940198,-43.182970,,,0,,,,
2020O00117C0,,Joia Valansi,,-22.945340,-43.184140,,,0,,,,
2020O00119C0,,São Clemente,,-22.948919,-43.184317,,,0,,,,
2020O00149C0,,General Polidoro,,-22.958817,-43.191064,,,0,,,,
2020O00005S0,5EKS,"BRS 1,2,3,I: Sorocaba",,-22.949856,-43.190623,,,0,,,,
2020O00099C0,,Engenheiro Bernardo Saião,,-22.954135,-43.180378,,,0,,,,
2020O00135C0,,Visconde de Ouro Preto,,-22.945815,-43.181907,,,0,,,,
2020O00136C0,,Mourisco,,-22.949609,-43.180646,,,0,,,,
2020O00002S0,5CKV,"BRS 1,2: Visconde de Ouro Preto II",,-22.947373,-43.182628,,,0,,,,
2020O00073S0,4CXS,"BRS 1,2,3,I: Farani",,-22.943226,-43.180742,,,0,,,,
2020O00016S0,4AFV,"BRS 1,2,3,I: Cobal",,-22.955667,-43.196167,,,0,,,,
2020O00058S0,4ANP,"BRS 1,2,3,I: Conde de Irajá",,-22.955184,-43.194760,,,0,,,,
2020O00017S0,4BXS,"BRS 1,2,3,I: Real Grandeza",,-22.954194,-43.191986,,,0,,,,
2020O00020S0,4CDF,"BRS 1,2,3,I: Paulino Fernandes",,-22.951935,-43.185606,,,0,,,,
2020O00059S0,4CHN,"BRS 1,2,3,I: Nelson Mandela",,-22.951101,-43.183259,,,0,,,,
2020O00072S0,4CME,"BRS 1,2,3,I: Visconde de Ouro Preto",,-22.946944,-43.182126,,,0,,,,
2020O00074S0,5AFB,"BRS 1,2,3,I: Marquês de Abrantes",,-22.941484,-43.179766,,,0,,,,
2020O00075S0,5AKT,"BRS 1,2,3,I: Farani",,-22.942616,-43.181153,,,0,,,,
2020O00076S0,5CDB,"BRS 3,I: Visconde de Ouro Preto I",,-22.946493,-43.182672,,,0,,,,
2020O00064S0,5DTY,"BRS 1,2,3,I: Muniz Barreto",,-22.949190,-43.184060,,,0,,,,
2020O00006S0,5ETX,"BRS 1,2,3,I: Real Grandeza",,-22.950603,-43.193199,,,0,,,,
2020O00040S0,5GCZ,"BRS 1,2,3,I: Palácio da Cidade",,-22.951427,-43.194869,,,0,,,,
2021O00011C0,,General Dionísio,,-22.958087,-43.196482,,,0,,,,
2022O00001C0,,Instituto Benjamin Constant,,-22.952990,-43.172440,,,0,,,,
2022O00003C0,,Odílio Bacelar,,-22.952660,-43.167460,,,0,,,,
2017O00058C0,,Conde de Baependi,,-22.932135,-43.179148,,,0,,,,
2022O00005C0,,Marechal Cantuária,,-22.949270,-43.166200,,,0,,,,
2022O00006C0,,Praia da Urca,,-22.948380,-43.164430,,,0,,,,
2022O00007C0,,Roquete Pinto,,-22.946820,-43.162110,,,0,,,,
2022O00008C0,,Joaquim Caetano,,-22.945130,-43.161000,,,0,,,,
2022O00010C0,,Almirante Gomes Pereira,,-22.943360,-43.161640,,,0,,,,
2022O00011C0,,Roquete Pinto,,-22.945170,-43.163320,,,0,,,,
2022O00013C0,,Praia da Urca,,-22.948020,-43.164180,,,0,,,,
2022O00014C0,,Mureta da Urca,,-22.948470,-43.165930,,,0,,,,
2022O00016C0,,Urbano Santos,,-22.951980,-43.168560,,,0,,,,
2022O00018C0,,Escola Municipal Minas Gerais,,-22.953910,-43.168890,,,0,,,,
rtq7,,Unicenter,,-22.942151,-43.341420,,,0,,,,
2022O00019C0,,Instituto Benjamin Constant,,-22.953030,-43.171700,,,0,,,,
2022O00020C0,,Palácio Universitário,,-22.952290,-43.173220,,,0,,,,
2020O00134C0,,Farani,,-22.943212,-43.180541,,,0,,,,
2020O00083C0,,Farani,,-22.943774,-43.180610,,,0,,,,
2020O00011S0,3EN8,"BRS 3,I: Lauro Sodré III",,-22.956114,-43.177442,,,0,,,,
2019O00026C0,,Pires de Almeida,,-22.938194,-43.194939,,,0,,,,
2020O00027S0,3EML,BRS 1: Lauro Sodré II,,-22.956430,-43.177388,,,0,,,,
2020O00012C0,3ENY,"BRS 1,2,3,I: UFRJ - Pinel",,-22.952751,-43.175966,,,0,,,,
2020O00116C0,,Marquês de Olinda,,-22.943078,-43.183388,,,0,,,,
2020O00130C0,,Escola Municipal João Saldanha,,-22.953658,-43.181575,,,0,,,,
2020O00118C0,,Vicente de Sousa,,-22.947189,-43.184288,,,0,,,,
2020O00081C0,,Pinheiro Guimarães,,-22.958792,-43.191295,,,0,,,,
2020O00131C0,,Arnaldo Quintela,,-22.954991,-43.180879,,,0,,,,
2020O00133C0,,Praça Nicarágua :: Sentido Copacabana,,-22.942619,-43.177023,,,0,,,,
2020O00137C0,,Casas & Gourmet Shopping,,-22.955002,-43.178405,,,0,,,,
2020O00156C0,,Farani,,-22.942227,-43.179984,,,0,,,,
2022O00002C0,,UNIRIO,,-22.954248,-43.168539,,,0,,,,
2021O00009S0,,Macedo Sobrinho,,-22.957147,-43.198663,,,0,,,,
2020O00035S0,,Visconde de Ouro Preto,,-22.947101,-43.182265,,,0,,,,
2020O00150C0,,Praça Chaim Weizmann,,-22.941160,-43.181950,,,0,,,,
2020O00155C0,,Praça Chaim Weizmann,,-22.941349,-43.182324,,,0,,,,
2020O00132C0,,Shopping RioSul,,-22.955743,-43.178584,,,0,,,,
2020O00148C0,,Praça Nicarágua :: Sentido Centro,,-22.942824,-43.176753,,,0,,,,
2022O00023C0,,Praça Felix Laranjeiras,,-22.953250,-43.168110,,,0,,,,
2022O00025C0,,Mureta da Urca,,-22.950680,-43.167770,,,0,,,,
2023O00017C0,,Martim Afonso,,-22.962640,-43.166690,,,0,,,,
2023O00018C0,,Aurelino Leal,,-22.962630,-43.167900,,,0,,,,
2023O00019C0,,Anchieta,,-22.963270,-43.169530,,,0,,,,
2023O00015C0,,Anchieta,,-22.963810,-43.169950,,,0,,,,
2023O00020C0,,Ponto Final: Leme (Praça Almirante Julio de Noronha),,-22.962030,-43.165260,,,0,,,,
2023O00008C0,,Ponto Final: Leme (Gustavo Sampaio),,-22.961690,-43.166110,,,0,,,,
2020O00153S2,4CBD,"BRS 1,2,3,I: Sorocaba",,-22.953242,-43.189239,,,0,,,,
2021O00003S0,5GEE,"BRS 1,2,3,I: Largo dos Leões",,-22.953009,-43.196703,,,0,,,,
2021O00010S0,5GGT,"BRS 1,2,3,I: Pedro II",,-22.955823,-43.198268,,,0,,,,
2024O00007S0,2JVB,"BRS 1,3,I: Sousa Lima",,-22.982390,-43.190940,,,0,,,,
2024O00035C2,2K76,BRS 2: Sá Ferreira,,-22.980440,-43.191017,,,0,,,,
2024O00014S0,2KD3,"BRS 1,3,I: Djalma Ulrich",,-22.979360,-43.190890,,,0,,,,
2024O00036S0,2LP4,"BRS 1,3,I: Constante Ramos",,-22.973610,-43.188560,,,0,,,,
2024O00009S0,2LWC,BRS 2: Raimundo Corrêa,,-22.973030,-43.188180,,,0,,,,
2024O00037S0,2MGC,BRS 2: Figueiredo Magalhães,,-22.971130,-43.186750,,,0,,,,
2024O00010S0,2MKT,"BRS 1,3,I: Siqueira Campos",,-22.969590,-43.185060,,,0,,,,
2024O00004S0,2NH2,BRS 2: República do Peru,,-22.967250,-43.180960,,,0,,,,
2024O00011S0,2NHN,"BRS 1,3,I: Fernando Mendes",,-22.966850,-43.179740,,,0,,,,
2024O00017S0,3DU3,"BRS 1,2: Demétrio Ribeiro",,-22.961987,-43.174865,,,0,,,,
2024O00034S0,A9DS,"BRS 1,2,3,I: Conselheiro Lafaiete",,-22.983611,-43.193179,,,0,,,,
2024O00104C0,,Barata Ribeiro,,-22.968830,-43.187100,,,0,,,,
2024O00106C0,,Tenente Marones de Gusmão,,-22.965830,-43.189640,,,0,,,,
2024O00107C0,,Figueiredo Magalhães,,-22.964774,-43.189964,,,0,,,,
2024O00025C0,,Metrô Cantagalo,,-22.975280,-43.193460,,,0,,,,
2024O00023C0,,Anita Garibaldi,,-22.968280,-43.188420,,,0,,,,
2024O00001C0,,Lacerda Coutinho,,-22.969290,-43.189980,,,0,,,,
2024O00065S0,2YGZ,BRS 2: Raul Pompéia,,-22.985165,-43.191863,,,0,,,,
2024O00105C0,,Metrô Siqueira Campos,,-22.967310,-43.188380,,,0,,,,
2024O00082C0,,Leopoldo Miguez,,-22.977730,-43.191810,,,0,,,,
2024O00091S0,2TN7,BRS 1: Ronald de Carvalho,,-22.962900,-43.177096,,,0,,,,
2024O00028S0,2V87,"BRS 1,3,I: Hilário de Gouveia",,-22.967480,-43.184120,,,0,,,,
2024O00092S0,2TXB,BRS 1: Rodolfo Dantas,,-22.964430,-43.179450,,,0,,,,
2024O00027S0,2U7M,BRS 2: Cardeal Arcoverde,,-22.965190,-43.180620,,,0,,,,
2024O00047S0,2V6N,BRS 2: Paula Freitas,,-22.966880,-43.183210,,,0,,,,
2024O00048S0,2VBZ,"BRS 1,3,I: Anita Garibaldi",,-22.969530,-43.187270,,,0,,,,
2024O00042S0,2VBW,BRS 2: Figueiredo Magalhães,,-22.968750,-43.186080,,,0,,,,
2024O00008S0,2LCP,"BRS 1,3,I: Bolívar",,-22.977503,-43.190416,,,0,,,,
2024O00043S0,2WFG,"BRS 1,3,I: Raimundo Corrêa",,-22.971600,-43.189670,,,0,,,,
2024O00029S0,2VFU,BRS 2: Santa Clara,,-22.969880,-43.187820,,,0,,,,
2024O00030S0,2WPP,"BRS 1,3,I: Barão de Ipanema",,-22.973620,-43.191300,,,0,,,,
2024O00049S0,2WJT,BRS 2: Constante Ramos,,-22.972490,-43.190540,,,0,,,,
2024O00093S0,2XEV,"BRS 1,3,I: Xavier da Silveira",,-22.976080,-43.192510,,,0,,,,
2024O00044S0,2WR3,BRS 2: Bolívar,,-22.975300,-43.192200,,,0,,,,
2024O00045S0,2XRR,"BRS 1,3,I: Sousa Lima",,-22.981800,-43.192470,,,0,,,,
2024O00031S0,2XMC,BRS 2: Miguel Lemos,,-22.977020,-43.192760,,,0,,,,
2024O00032S0,2YFH,"BRS 1,3,I: Júlio de Castilhos",,-22.983906,-43.191828,,,0,,,,
2024O00119C0,,Atlântica,,-22.964963,-43.174534,,,0,,,,
2024O00013S0,A9NT,"BRS 1,2,3,I: Raul Pompeia",,-22.983389,-43.192411,,,0,,,,
2024O00026S0,2TWB,"BRS 1,2,3,I: Duvivier",,-22.963709,-43.178321,,,0,,,,
2024O00024C0,,Constante Ramos,,-22.973048,-43.192355,,,0,,,,
2024O00006S0,2EJV,BRS 3: Joaquim Nabuco,,-22.986070,-43.189898,,,0,,,,
2024O00022C0,,Metrô Siqueira Campos,,-22.967600,-43.187240,,,0,,,,
2024O00109C0,,Princesa Isabel,,-22.965055,-43.172955,,,0,,,,
2024O00128C0,,Belfort Roxo,,-22.965630,-43.175050,,,0,,,,
2024O00070C0,,Siqueira Campos,,-22.971253,-43.183586,,,0,,,,
2024O00134C0,,Santa Clara,,-22.972770,-43.185730,,,0,,,,
2024O00069C0,,Bolívar,,-22.975890,-43.187550,,,0,,,,
2024O00135C0,,Bolívar,,-22.976290,-43.188200,,,0,,,,
2024O00136C0,,Miguel Lemos,,-22.977790,-43.188890,,,0,,,,
2024O00068C0,,Miguel Lemos,,-22.978580,-43.188800,,,0,,,,
2024O00137C0,,Djalma Ulrich,,-22.979500,-43.189500,,,0,,,,
2024O00138C0,,Sousa Lima,,-22.982060,-43.189970,,,0,,,,
2024O00139C0,,Júlio de Castilhos,,-22.983510,-43.189451,,,0,,,,
2024O00125C0,,Joaquim Nabuco,,-22.985360,-43.188910,,,0,,,,
2025O00030C0,,Parque Garota de Ipanema,,-22.987350,-43.192140,,,0,,,,
2024O00050C0,,Ministro Viveiros de Castro,,-22.963549,-43.174520,,,0,,,,
2024O00083S0,2HTJ,BRS 2: Rainha Elizabeth,,-22.985066,-43.190190,,,0,,,,
2024O00096S0,2KYN,BRS 2: Miguel Lemos,,-22.978300,-43.190610,,,0,,,,
2024O00097S0,2LHP,BRS 2: Barão de Ipanema,,-22.975360,-43.189650,,,0,,,,
2024O00038S0,2NAE,"BRS 1,3,I: Paula Freitas",,-22.968270,-43.183130,,,0,,,,
2024O00039S0,2NJY,BRS 2: Rodolfo Dantas,,-22.965990,-43.178150,,,0,,,,
2024O00120S0,3CDM,"BRS 3,I: Nossa Senhora de Copacabana",,-22.963070,-43.174260,,,0,,,,
2024O00098S0,2NM5,"BRS 1,3,I: Belfort Roxo",,-22.965000,-43.176230,,,0,,,,
2025O00038C0,,Ponto Final: General Osório :: Rua Teixeira de Melo,,-22.984883,-43.198536,,,0,,,,
2025O00058C0,,Praça Paul Claudel,,-22.981294,-43.213477,,,0,,,,
2026O00001C0,,General Artigas,,-22.987570,-43.224670,,,0,,,,
2026O00013C0,,Clube Monte Líbano,,-22.980150,-43.215940,,,0,,,,
2026O00007S0,RN23,"BRS 1,2,3: Cupertino Durão",,-22.984090,-43.221000,,,0,,,,
2026O00011S0,RN52,"BRS 1,2,3: Afrânio de Melo Franco",,-22.983820,-43.218240,,,0,,,,
2026O00008S0,RNE5,"BRS 1,2,3: Jardim de Alah",,-22.983760,-43.216120,,,0,,,,
2025O00009S0,A7AY,"BRS 1,2,3: Aníbal de Mendonça",,-22.983912,-43.212110,,,0,,,,
2024O00133C0,,Siqueira Campos,,-22.970706,-43.183562,,,0,,,,
2025O00034S0,6FWH,"BRS 1,2,3: Vinícius de Moraes",,-22.985264,-43.204524,,,0,,,,
2025O00021S0,6GFH,"BRS 1,2,3: Garcia d'Ávila",,-22.985067,-43.208653,,,0,,,,
2025O00003S0,6HFY,"BRS 1,2,3: Anibal de Mendonça",,-22.984955,-43.210774,,,0,,,,
cf31,,Meringuava,,-22.914173,-43.387890,,,0,,,,
2025O00022S0,6HLG,"BRS 1,2,3: Henrique Dumont",,-22.984835,-43.212524,,,0,,,,
2024O00071C0,,República do Peru,,-22.969150,-43.180730,,,0,,,,
2025O00033S0,6FVC,"BRS 1,2,3: Farme de Amoedo",,-22.985450,-43.201607,,,0,,,,
2025O00031C0,,Ponto Final: Metrô General Osório :: Rua Visconde de Pirajá,,-22.984747,-43.197457,,,0,,,,
2024O00122C0,,Paula Freitas,,-22.966030,-43.184150,,,0,,,,
2025O00061C0,,Farme de Amoedo,,-22.986826,-43.201243,,,0,,,,
2025O00012S0,6KGJ,"BRS 3,I: Apollo Onze",,-22.986120,-43.195460,,,0,,,,
2025O00006S0,A7CT,"BRS 1,2,3: Garcia d'Ávila",,-22.984015,-43.210389,,,0,,,,
2025O00035S0,A7GC,"BRS 1,2,3: Maria Quitéria",,-22.984145,-43.207924,,,0,,,,
2025O00036S0,A7KZ,"BRS 1,2,3: Joana Angélica",,-22.984346,-43.204050,,,0,,,,
2025O00007S0,A7YF,"BRS 1,2,3: Farme de Amoedo",,-22.984586,-43.199731,,,0,,,,
2025O00011S0,A8FM,"BRS 1,2,3,I: Jangadeiros",,-22.984783,-43.195964,,,0,,,,
2025O00008S0,A8HF,"BRS 1,2,3,I: Bulhões de Carvalho",,-22.984079,-43.194256,,,0,,,,
2022O00027C0,,Ponto Regulador: Urca :: Linhas 519 e 518 ,,-22.943340,-43.161290,,,0,,,,
2026O00006S0,RN4P,"BRS 1,2,3: General Artigas",,-22.985280,-43.226030,,,0,,,,
2024O00131C0,,República do Peru,,-22.968873,-43.180922,,,0,,,,
2024O00072C0,,Rodolfo Dantas,,-22.967821,-43.178528,,,0,,,,
2024O00073C0,,Prado Júnior,,-22.965785,-43.174538,,,0,,,,
2024O00126C0,,Júlio de Castilhos,,-22.983903,-43.189781,,,0,,,,
2024O00129C0,,Duvivier,,-22.966789,-43.177345,,,0,,,,
2025O00001S0,2YS3,BRS 1: Canning,,-22.985622,-43.193564,,,0,,,,
2024O00140C0,,Santa Clara,,-22.973667,-43.186047,,,0,,,,
2025O00002S0,6FUW,"BRS 1,2,3: Teixeira de Melo",,-22.985563,-43.199607,,,0,,,,
2025O00016C0,,Maria Quitéria,,-22.986268,-43.207602,,,0,,,,
2025O00029C0,,Maria Quitéria,,-22.986487,-43.207712,,,0,,,,
2025O00018C0,,Henrique Dumont,,-22.985964,-43.213282,,,0,,,,
2025O00004C0,,Posto 10,,-22.986269,-43.211736,,,0,,,,
2025O00020S0,6EHC,"BRS 1,2,3,I: General Osório",,-22.985628,-43.198174,,,0,,,,
2024O00123C0,,Metrô Cardeal Arcoverde,,-22.964930,-43.181970,,,0,,,,
2026O00016C0,,Afrânio de Melo Franco,,-22.986290,-43.217090,,,0,,,,
2026O00026C0,,Hospital Municipal Miguel Couto,,-22.977910,-43.222780,,,0,,,,
2026O00038C0,,Clube de Regatas do Flamengo,,-22.978110,-43.218490,,,0,,,,
2026O00051C0,,Nossa Senhora Auxiliadora,,-22.979150,-43.222920,,,0,,,,
2026O00069C0,,Capitão César de Andrade,,-22.980250,-43.226370,,,0,,,,
2026O00070C0,,Baden Powell,,-22.982360,-43.226920,,,0,,,,
2026O00071C0,,Rodolfo Albino,,-22.984530,-43.228900,,,0,,,,
2026O00075C0,,Professor Azevedo Marques,,-22.985120,-43.229610,,,0,,,,
2026O00088C0,,Juquiá,,-22.980970,-43.223750,,,0,,,,
2026O00090C0,,Humberto de Campos,,-22.981460,-43.215040,,,0,,,,
2026O00092C0,,Leôncio Corrêa,,-22.982700,-43.227720,,,0,,,,
2026O00093C0,,Professor Azevedo Marques,,-22.985740,-43.229360,,,0,,,,
2026O00098C0,,Bartolomeu Mitre,,-22.986930,-43.222210,,,0,,,,
2026O00100C0,,Humberto de Campos,,-22.981150,-43.218220,,,0,,,,
2026O00112C9,,Cupertino Durão,,-22.986893,-43.220334,,,0,,,,
2027O00025C0,,Praça General Alcio Souto,,-22.961550,-43.203160,,,0,,,,
2025O00060C0,,Teixeira de Melo,,-22.986671,-43.199305,,,0,,,,
2025O00032C0,,Posto 8,,-22.987400,-43.196600,,,0,,,,
2027O00042C0,,Almirante Custódio de Melo,,-22.964044,-43.214469,,,0,,,,
2027O00022C0,,Carlos Esmeraldino,,-22.962950,-43.211520,,,0,,,,
2027O00041C0,,Maria Angélica,,-22.962870,-43.208300,,,0,,,,
2025O00057C0,,Vinícius de Moraes,,-22.979280,-43.201283,,,0,,,,
2025O00054C0,,Maria Quitéria,,-22.980590,-43.205990,,,0,,,,
2025O00052C0,,Aníbal de Mendonça,,-22.980640,-43.211852,,,0,,,,
2026O00053C0,,Ponto Final: Gávea :: Linhas para Zona Oeste,,-22.979010,-43.222250,,,0,,,,
2027O00026C0,,Frei Solano,,-22.962923,-43.203039,,,0,,,,
2027O00059C0,,Eurico Cruz,,-22.960683,-43.206938,,,0,,,,
2027O00097C0,,General Garzon,,-22.967135,-43.219830,,,0,,,,
2027O00102C0,,Carlos Esmeraldino,,-22.962566,-43.211116,,,0,,,,
2028O00025C0,,Eurico Cruz,,-22.960475,-43.206776,,,0,,,,
2026O00057C0,,Ponto Final: Jardim de Alah :: Afrânio de Melo Franco,,-22.979600,-43.218240,,,0,,,,
2026O00095C0,6HXF,Ponto Final: Leblon :: Praça Antero de Quental,,-22.985490,-43.223500,,,0,,,,
2026O00078C0,,Professor Arthur Ramos :: Linhas sentido Barra da Tijuca,,-22.983460,-43.223290,,,0,,,,
2028O00036C0,,Jóquei Clube,,-22.971011,-43.223365,,,0,,,,
2028O00021C0,,Marquês de Sabará,,-22.966710,-43.231340,,,0,,,,
2028O00003C0,,Mestre Ioviniano,,-22.965739,-43.224556,,,0,,,,
2028O00020C0,,Barão de Oliveira Castro,,-22.966180,-43.229750,,,0,,,,
2028O00039C0,,Barão de Oliveira Castro,,-22.966322,-43.229697,,,0,,,,
2028O00019C0,,Escola Municipal Capistrano de Abreu,,-22.965620,-43.228700,,,0,,,,
2028O00038C0,,Escola Municipal Capistrano de Abreu,,-22.965807,-43.228692,,,0,,,,
2028O00037C0,,Abreu Fialho,,-22.965504,-43.226612,,,0,,,,
2026O00020S0,6HPE,"BRS 1,2,3: Carlos Góis",,-22.984810,-43.219110,,,0,,,,
2028O00004C0,,Von Martius,,-22.965415,-43.222412,,,0,,,,
2029O00010C0,,Alexandre Stockler,,-22.984333,-43.240774,,,0,,,,
2028O00014C0,,Colégio Divina Providência,,-22.964200,-43.221390,,,0,,,,
2028O00005C0,,Visconde de Carandaí,,-22.965910,-43.221020,,,0,,,,
2028O00013C0,,Visconde de Carandaí,,-22.964800,-43.219710,,,0,,,,
2027O00013C0,,Praça Senador Filinto Miller,,-22.975730,-43.198470,,,0,,,,
2027O00057C0,,Viaduto Saint-Hilaire,,-22.960469,-43.204758,,,0,,,,
2026O00076C0,,Metrô Antero de Quental,,-22.984710,-43.222970,,,0,,,,
2025O00050C0,,Visconde de Pirajá,,-22.983096,-43.214189,,,0,,,,
2027O00023C0,,Maria Angélica,,-22.963008,-43.207182,,,0,,,,
2027O00020C0,,General Garzon,,-22.968899,-43.217294,,,0,,,,
2026O00091C0,,Metrô Jardim de Alah,,-22.983256,-43.215618,,,0,,,,
2026O00086C0,,João de Barros :: Linhas sentido Gávea,,-22.982940,-43.223420,,,0,,,,
2026O00087C0,,Humberto de Campos :: Linhas sentido Barra da Tijuca,,-22.982170,-43.223610,,,0,,,,
2027O00040C0,,Corte do Cantagalo,,-22.976973,-43.196361,,,0,,,,
2026O00037S0,6HWC,"BRS 1,2,3: João Lira",,-22.985140,-43.221600,,,0,,,,
2025O00053C0,,Garcia d'Ávila,,-22.980820,-43.208646,,,0,,,,
2025O00055C0,,Joana Angélica,,-22.979967,-43.203738,,,0,,,,
2028O00018C0,,Abreu Fialho,,-22.965436,-43.226325,,,0,,,,
2026O00058C0,,Paisandu Atlético Clube,,-22.980702,-43.218088,,,0,,,,
2029O00032C0,,Gávea Trade Center,,-22.976590,-43.229655,,,0,,,,
2029O00034P0,,Terminal da PUC :: Plataforma A,,-22.979071,-43.231112,,,0,2029O00041T0,,,A
2028O00027C0,3GDT,J. Carlos,,-22.960810,-43.209310,,,0,,,,
2028O00031C0,6PUF,Hospital da Lagoa,,-22.961865,-43.215231,,,0,,,,
2027O00067C0,VIN5,Engenheiro Marques Porto,,-22.959719,-43.201374,,,0,,,,
2027O00103C0,,Parque dos Patins,,-22.973973,-43.218227,,,0,,,,
2027O00104C0,,Marcos Tamoyo,,-22.962634,-43.205994,,,0,,,,
2027O00087C0,,Vitor Maurtua,,-22.965196,-43.203744,,,0,,,,
2027O00086C0,,Vitor Maurtua,,-22.964960,-43.203520,,,0,,,,
2027O00088C0,,Ministro Armando de Alencar,,-22.969090,-43.205510,,,0,,,,
2027O00085C0,,Ministro Armando de Alencar,,-22.969278,-43.205277,,,0,,,,
2027O00082C0,,Parque da Catacumba,,-22.973110,-43.202000,,,0,,,,
2027O00093C0,,Vinícius de Moraes,,-22.979240,-43.202490,,,0,,,,
2027O00094C0,,Maria Quitéria,,-22.980440,-43.206750,,,0,,,,
2029O00028C0,,Praça Sibélius,,-22.977370,-43.226570,,,0,,,,
2029O00025C0,,Ponto Final: Alto Gávea :: Parque da Cidade,,-22.982038,-43.240976,,,0,,,,
2027O00045C0,,Baronesa do Poconé,,-22.962666,-43.202859,,,0,,,,
2027O00101C0,,Carvalho Azevedo,,-22.964472,-43.202862,,,0,,,,
2027O00044C0,,Sacopã,,-22.965081,-43.202547,,,0,,,,
2027O00046C0,,Almirante Guillobei,,-22.966520,-43.202630,,,0,,,,
2029O00041T0,,Terminal da PUC,,-22.979221,-43.231567,,,1,,,,
2031O00003C0,,Povina Cavalcanti,,-22.997560,-43.260500,,,0,,,,
2031O00008C0,,Almirante Álvaro Alberto,,-22.995057,-43.257310,,,0,,,,
2031O00014C0,,Gavea Golf and Country Club,,-22.997490,-43.264730,,,0,,,,
2031O00037C0,,Mirante das Canoas,,-22.988314,-43.269560,,,0,,,,
2031O00038C0,,Mirante das Canoas,,-22.988231,-43.269603,,,0,,,,
2032O00018C0,,Barão de Iguatemi,,-22.913530,-43.215890,,,0,,,,
2032O00027C0,,Estação Barão de Mauá :: Pista Lateral,,-22.907740,-43.210140,,,0,,,,
2029O00001C0,,Vila Cruzado,,-22.985290,-43.244640,,,0,,,,
2031O00033C0,,Gabriel Garcia Moreno,,-22.993419,-43.275522,,,0,,,,
2031O00039C0,,"Canoa, 3323",,-22.985214,-43.270980,,,0,,,,
2031O00035C0,,"Canoa, 1850",,-22.989165,-43.274021,,,0,,,,
2031O00036C0,,Casa das Canoas - Fundação Oscar Niemeyer,,-22.987214,-43.273328,,,0,,,,
2031O00034C0,,Condomínio Povoado das Canoas,,-22.991355,-43.274073,,,0,,,,
2029O00011C0,,Álvaro Americano,,-22.982390,-43.238090,,,0,,,,
2029O00012C0,,Engenheiro Mario Machado,,-22.981514,-43.236429,,,0,,,,
2029O00019C0,,Adolfo Luz,,-22.979434,-43.234652,,,0,,,,
2029O00035C0,,Adolfo Luz,,-22.979379,-43.234476,,,0,,,,
2029O00018C0,,Duque Estrada,,-22.978030,-43.233440,,,0,,,,
2029O00013C0,,Duque Estrada,,-22.977790,-43.232910,,,0,,,,
2029O00029C0,,CMS Pindaro de Carvalho Rodrigues,,-22.979409,-43.229308,,,0,,,,
2029O00027C0,,Praça Sibélius,,-22.979560,-43.226690,,,0,,,,
2029O00033C0,,Padre Leonel Franca,,-22.978570,-43.229750,,,0,,,,
2027O00096C0,,Colégio Estadual André Maurois,,-22.977042,-43.224905,,,0,,,,
2029O00016C0,,Praça Sibélius,,-22.977370,-43.227240,,,0,,,,
2029O00039P0,,Terminal da PUC :: Plataforma B,,-22.979381,-43.231033,,,0,2029O00041T0,,,B
2028O00016C0,,Von Martius,,-22.965326,-43.222540,,,0,,,,
2027O00098C0,HKBW,ABBR,,-22.964565,-43.217649,,,0,,,,
2027O00043C0,,General Garzon,,-22.969067,-43.217597,,,0,,,,
2028O00032C0,7DDY,ABBR,,-22.964402,-43.217762,,,0,,,,
2027O00105C0,AWBW,Jóquei Clube,,-22.973620,-43.225424,,,0,,,,
2027O00060C0,RE3Z,Tasso Fragoso,,-22.961141,-43.210429,,,0,,,,
2030O00012C0,,Vidigal,,-22.994692,-43.234484,,,0,,,,
2027O00051C0,FMCV,Jardim Botânico,,-22.971410,-43.223400,,,0,,,,
2029O00020C0,,Antenor Rangel,,-22.981520,-43.236710,,,0,,,,
2027O00061C0,JJAY,Parque Lage,,-22.961400,-43.213083,,,0,,,,
2027O00062C0,IGR3,Hospital da Lagoa,,-22.962236,-43.215419,,,0,,,,
2027O00091C0,,Parque da Catacumba,,-22.974247,-43.201291,,,0,,,,
2027O00049C0,,Biblioteca Municipal Vinicius de Moraes,,-22.976080,-43.225182,,,0,,,,
2031O00025C0,,Ponto Final: São Conrado,,-22.998852,-43.270560,,,0,,,,
2029O00031C0,,Praça Sibélius,,-22.978520,-43.227510,,,0,,,,
2027O00089C0,,Tabatinguera,,-22.971655,-43.207983,,,0,,,,
2027O00084C0,,Tabatinguera,,-22.971640,-43.207617,,,0,,,,
2027O00099C0,,Calombo,,-22.973855,-43.205573,,,0,,,,
2027O00083C0,,Calombo,,-22.973779,-43.205940,,,0,,,,
2028O00029C0,6EIC,Parque Lage,,-22.961153,-43.212366,,,0,,,,
2027O00095C0,,Aníbal de Mendonça,,-22.980383,-43.210946,,,0,,,,
2027O00100C0,,Corte do Cantagalo,,-22.976836,-43.196288,,,0,,,,
1005O00226C0,,Henrique Valadares,,-22.912190,-43.190570,,,0,,,,
2032O00032C0,,Estação Barão de Mauá :: Linha 461,,-22.907059,-43.210830,,,0,,,,
2031O00002C0,,Herbert Moses,,-22.998160,-43.265680,,,0,,,,
2029O00038C0,9VQU,Praça Santos Dumont,,-22.973808,-43.226103,,,0,,,,
2032O00015C0,,Joaquim Palhares,,-22.913590,-43.210270,,,0,,,,
2031O00007C0,,Fashion Mall,,-22.996090,-43.259380,,,0,,,,
2031O00013C0,,Golf Clube,,-22.994680,-43.257770,,,0,,,,
2031O00024C0,,Bertha Lutz,,-22.993995,-43.253922,,,0,,,,
2031O00012C0,,Almirante Álvaro Alberto,,-22.997380,-43.257540,,,0,,,,
2030O00007C0,,Chácara do Céu,,-22.990922,-43.232441,,,0,,,,
2030O00004C0,,Chácara do Céu,,-22.991075,-43.232530,,,0,,,,
2030O00009C0,,Dom Eugênio Sales,,-22.997250,-43.237840,,,0,,,,
2030O00001C0,,Dom Eugênio Sales,,-22.997300,-43.237610,,,0,,,,
2030O00010C0,,Vip's,,-23.000162,-43.243597,,,0,,,,
2032O00022C0,,Praça da Bandeira :: Pista Lateral,,-22.911510,-43.214100,,,0,,,,
2032O00021C0,,Praça da Bandeira :: Pista Central,,-22.911540,-43.214381,,,0,,,,
2031O00040C0,,Ápia,,-22.990903,-43.252408,,,0,,,,
2031O00004C0,,Ponto Final: São Conrado :: Avenida Prefeito Mendes de Moraes,,-22.998650,-43.259573,,,0,,,,
2032O00017C0,,Santa Filomena,,-22.913557,-43.215314,,,0,,,,
2032O00001C0,,Ponto Final: Praça da Bandeira :: Joaquim Palhares,,-22.911486,-43.212072,,,0,,,,
2032O00023C0,,Praça da Bandeira :: Pista Central,,-22.910852,-43.214212,,,0,,,,
2032O00020C0,,Praça da Bandeira :: Pista Lateral,,-22.910504,-43.214342,,,0,,,,
2033O00100C0,,Ponto Final: Saens Peña :: Linha 409,,-22.931494,-43.234319,,,0,,,,
2033O00127C0,,Ponto Final: Muda,,-22.932232,-43.247523,,,0,,,,
2033O00128C0,,Ponto Final: Saens Peña :: Linha 629,,-22.922814,-43.232537,,,0,,,,
2033O00152C0,,Santa Carolina,,-22.943884,-43.254209,,,0,,,,
2033O00156C0,,São Miguel,,-22.943706,-43.254835,,,0,,,,
2033O00022S0,9D2Q,"BRS 2,3,4: Moraes e Silva",,-22.916560,-43.226310,,,0,,,,
2033O00141C0,,Dona Delfina,,-22.931410,-43.239130,,,0,,,,
2033O00133C0,,Haddock Lobo,,-22.920639,-43.215215,,,0,,,,
2033O00104C0,,Professor Gabizo,,-22.922970,-43.217380,,,0,,,,
2033O00105C0,,Araújo Pena,,-22.923660,-43.218540,,,0,,,,
2031O00027C0,,Ladeira das Yucas,,-22.998969,-43.250769,,,0,,,,
2031O00028C0,,Metrô São Conrado / Rocinha,,-22.993801,-43.252995,,,0,,,,
2031L00020C0,,Metrô São Conrado,,-22.991990,-43.253930,,,0,,,,
2031O00023C0,,Mercado Popular da Rocinha,,-22.992413,-43.252342,,,0,,,,
2029O00037C0,,Vila Cruzado,,-22.985376,-43.244742,,,0,,,,
2032O00028C0,,Estação Barão de Mauá :: Pista Central,,-22.908498,-43.209965,,,0,,,,
2031O00006C0,,Ladeira das Yucas,,-22.998990,-43.251270,,,0,,,,
2030O00002C0,,Vidigal,,-22.995280,-43.235100,,,0,,,,
2031O00026C0,,Praça de São Conrado,,-22.998975,-43.270729,,,0,,,,
2033O00045S0,31HK,"BRS 1,2,3,6,I: Pereira de Siqueira",,-22.919613,-43.223519,,,0,,,,
2031O00016C0,,Praça de São Conrado,,-22.998716,-43.270151,,,0,,,,
2033O00180C0,,"Ponto Final: Saens Peña :: 603, 626, 645",,-22.923826,-43.231994,,,0,,,,
2030O00011C0,,Sheraton,,-22.992068,-43.233590,,,0,,,,
2030O00008C0,,Sheraton,,-22.991952,-43.233799,,,0,,,,
2031O00001C0,,Praça de São Conrado,,-22.999269,-43.269144,,,0,,,,
2033O00039C0,,Ponto Final: Saens Peña :: Linha 639,,-22.923392,-43.234752,,,0,,,,
2033O00088C0,,"Ponto Final: Saens Peña :: Linhas 622, 625, 627, 630",,-22.922718,-43.233199,,,0,,,,
2031O00022C0,,GRES Acadêmicos da Rocinha,,-22.992826,-43.252130,,,0,,,,
2033O00147C1,,Hospital São Francisco,,-22.940248,-43.249662,,,0,,,,
2031O00015C0,,Aquarela do Brasil,,-22.996291,-43.255176,,,0,,,,
2033O00095C0,,Ponto Final: Saens Peña :: Linhas 621 e 623,,-22.920484,-43.223411,,,0,,,,
2031O00019C0,,Metrô São Conrado,,-22.991984,-43.253629,,,0,,,,
2033O00122S9,NZA5,"BRS 1,6: Saens Peña II",,-22.924080,-43.232730,,,0,,,,
2033O00172C0,,Alves de Brito,,-22.933795,-43.242101,,,0,,,,
2033O00177C0,,General Roca,,-22.924980,-43.233660,,,0,,,,
2033O00135C0,,Pinto de Figueiredo,,-22.925560,-43.234750,,,0,,,,
2033O00136C0,,Abelardo Chacrinha Barbosa,,-22.926048,-43.235176,,,0,,,,
2033O00176C0,,Abelardo Chacrinha Barbosa,,-22.927087,-43.235595,,,0,,,,
2033O00137C0,,Conde de Itaguaí,,-22.927550,-43.236150,,,0,,,,
2033O00175C0,,Henry Ford,,-22.928422,-43.236400,,,0,,,,
2033O00139C0,,Clóvis Bevilaqua,,-22.929110,-43.237060,,,0,,,,
2033O00140C0,,José Higino,,-22.929518,-43.237305,,,0,,,,
2033O00174C0,,Vicente de Cabo Frio,,-22.931110,-43.238330,,,0,,,,
2033O00143C0,,Alves de Brito,,-22.933860,-43.242410,,,0,,,,
2033O00144C0,,Radmaker,,-22.934890,-43.243420,,,0,,,,
2033O00168C0,,Natalina,,-22.936322,-43.244759,,,0,,,,
2033O00169C0,,Garibaldi,,-22.935682,-43.244028,,,0,,,,
2033O00145C0,,Natalina,,-22.936440,-43.245151,,,0,,,,
2033O00159C0,,Santa Carolina,,-22.943280,-43.253822,,,0,,,,
2033O00158C0,,Santa Carolina,,-22.943307,-43.254891,,,0,,,,
2033O00155C0,,São Rafael,,-22.946068,-43.255223,,,0,,,,
2033O00153C0,,São Rafael,,-22.946010,-43.255330,,,0,,,,
2033O00106C0,,Barão de Itapagipe,,-22.924460,-43.221720,,,0,,,,
2033O00131C0,,Ponto Final: Saens Peña :: Praça Aldir Blanc,,-22.926855,-43.233743,,,0,,,,
2033O00111S9,NW3Y,"BRS 2,5,7,I: Saens Peña I",,-22.923736,-43.232262,,,0,,,,
2033O00212C0,,Condomínio Edifício Madri,,-22.927700,-43.231800,,,0,,,,
2033O00178C0,,Praça Saens Peña,,-22.924441,-43.232888,,,0,,,,
2033O00164C0,,Colégio Marista São José,,-22.940855,-43.250411,,,0,,,,
2033O00220C0,,Pinto Guedes,,-22.934560,-43.246910,,,0,,,,
2033O00219C0,,Gurindiba,,-22.933544,-43.247906,,,0,,,,
2033O00173C0,,Metrô Uruguai,,-22.932316,-43.240406,,,0,,,,
2033O00225C0,,Vitorio Emanuel,,-22.920736,-43.231648,,,0,,,,
2033O00197C0,,Pareto,,-22.921740,-43.229700,,,0,,,,
2033O00226C0,,São Francisco Xavier,,-22.916901,-43.229011,,,0,,,,
2033O00194C0,,Supermercados Guanabara - Tijuca,,-22.920340,-43.227250,,,0,,,,
2033O00234C0,,Marques de Valença,,-22.920180,-43.226170,,,0,,,,
2033O00236C0,,Pereira de Siqueira,,-22.920386,-43.225752,,,0,,,,
2033O00192C0,,São Francisco Xavier,,-22.918440,-43.224880,,,0,,,,
2033O00191C0,,Mariz e Barros,,-22.915120,-43.218700,,,0,,,,
2033O00208C0,,Silva Ramos,,-22.917060,-43.221100,,,0,,,,
2033O00190C0,,Gonçalves Crespo,,-22.916840,-43.217900,,,0,,,,
2033O00239C0,,Campos Sales,,-22.916000,-43.217210,,,0,,,,
2033O00204C0,,Martins Pena,,-22.918600,-43.219660,,,0,,,,
2033O00209C0,,Henry Ford,,-22.929797,-43.234198,,,0,,,,
2033O00232C0,,Conde de Bonfim,,-22.931840,-43.241590,,,0,,,,
2033O00237C0,,Heitor Beltrão,,-22.917785,-43.219874,,,0,,,,
2033O00214C0,,Maracanã,,-22.929080,-43.239080,,,0,,,,
2033O00215C0,,Maria Amália,,-22.927680,-43.239880,,,0,,,,
2033O00216C0,,Doutor Aníbal Moreira,,-22.925340,-43.240261,,,0,,,,
2033O00162C0,,Agostinho,,-22.942037,-43.252772,,,0,,,,
2033O00179C0,,Ponto Final: Saens Peña :: 608,,-22.924170,-43.232446,,,0,,,,
2033O00021S0,8UHE,"BRS 6,7: Barão de Mesquita",,-22.916428,-43.227624,,,0,,,,
2033O00112C9,,Haddock Lobo,,-22.916979,-43.212166,,,0,,,,
2033O00182C0,,Conselheiro Zenha,,-22.924382,-43.227830,,,0,,,,
2033O00149C0,,Colégio Marista São José,,-22.941030,-43.251680,,,0,,,,
2033O00118C0,,Igreja Nossa Senhora da Conceição,,-22.939120,-43.247790,,,0,,,,
2033O00146C0,,Igreja Nossa Senhora da Conceição,,-22.938999,-43.247835,,,0,,,,
2033O00181C0,,Saens Peña Medical Center,,-22.923610,-43.229666,,,0,,,,
2033O00196C0,,CIEP Samuel Wainer,,-22.921084,-43.228001,,,0,,,,
2033O00142C0,,Metrô Uruguai,,-22.932230,-43.240840,,,0,,,,
2033O00246C0,,Ponto Final: Saens Peña :: Linha 665,,-22.922176,-43.232577,,,0,,,,
2033O00026S9,MMW5,"BRS 1,2,5,6,7,I: Carmela Dutra",,-22.920970,-43.226760,,,0,,,,
2033O00042S9,NHAX,"BRS 1,2,5,6,7,I: Conselheiro Zenha",,-22.921630,-43.228480,,,0,,,,
2033O00132C0,,Ponto Final: Saens Peña :: Rua General Roca,,-22.925300,-43.232820,,,0,,,,
2033O00151C0,,Ary Kerner,,-22.941926,-43.253027,,,0,,,,
2033O00247C0,,Ponto Final: Saens Peña :: Linha 410,,-22.923941,-43.235854,,,0,,,,
2033O00248P0,,Terminal Prof. Carlos Manes Bandeira (Usina) :: Plat. B,Plataforma B,-22.946307,-43.256828,,,0,2033O00251T9,,,B
2033O00249P0,,Terminal Prof. Carlos Manes Bandeira (Usina) :: Plat. C,Plataforma C,-22.946300,-43.256660,,,0,2033O00251T9,,,C
2033O00206C0,,Silva Guimarães,,-22.927782,-43.233559,,,0,,,,
2034O00032C0,,Escola Municipal Mário Faccini,,-22.948963,-43.259915,,,0,,,,
2033O00188C0,,Bispo,,-22.919841,-43.215123,,,0,,,,
2033O00185C0,,Felix da Cunha,,-22.922754,-43.222164,,,0,,,,
2033O00228C0,,Heitor Beltrão,,-22.922630,-43.230190,,,0,,,,
2033O00198C0,,Major Ávila,,-22.922590,-43.231930,,,0,,,,
2033O00202C0,,Soriano de Sousa,,-22.924244,-43.234879,,,0,,,,
2034O00033C0,,Fontes Castelo,,-22.947490,-43.259190,,,0,,,,
2034O00013C0,,Raimundo Castro Maia,,-22.950720,-43.262020,,,0,,,,
2034O00014C0,,Jacamim,,-22.951447,-43.260818,,,0,,,,
2034O00015C0,,Muçu,,-22.953110,-43.261500,,,0,,,,
2033O00227C0,,Shopping Tijuca,,-22.922290,-43.236090,,,0,,,,
2034O00041C0,,Tijuaçu,,-22.972850,-43.284230,,,0,,,,
2032O00008S9,LSPW,"BRS 1,2,3,4,5,6,I: Matoso",,-22.916080,-43.212000,,,0,,,,
2033O00040S9,LU9B,"BRS 1,2,3,4,5,6,I: Domício da Gama",,-22.917040,-43.214430,,,0,,,,
2034O00009C0,,Biguá,,-22.970980,-43.282890,,,0,,,,
2035O00054C0,,Lúcio de Mendonça,,-22.916570,-43.222480,,,0,,,,
2035O00018S0,7V3P,"BRS 5,6: Felipe Camarão",,-22.912660,-43.236250,,,0,,,,
2035O00019S0,8A9A,"BRS 3,4,5,6: Professor Manoel de Abreu",,-22.913650,-43.234510,,,0,,,,
2035O00002S0,8AES,"BRS 5,6: Santa Luíza",,-22.915330,-43.232500,,,0,,,,
2035O00039S9,1EBQ,"BRS 4,5,I: Jorge Rudge",,-22.913840,-43.236970,,,0,,,,
2035O00043S0,5SGU,"BRS 3,4,I: Mará",,-22.912060,-43.237070,,,0,,,,
2035O00087C0,,Rei Pelé,,-22.911268,-43.224872,,,0,,,,
2034O00067C0,,Escola Municipal Mário Faccini,,-22.948786,-43.259947,,,0,,,,
2034O00019C0,,Casa do Alto,,-22.960130,-43.269767,,,0,,,,
2034O00018C0,,Curva do Violão,,-22.957652,-43.264686,,,0,,,,
2034O00069C0,,Curva do Violão,,-22.957157,-43.265385,,,0,,,,
2034O00017C0,,Estrada Velha da Tijuca,,-22.957310,-43.267790,,,0,,,,
2035O00041S0,8HAM,"BRS 2,3,4: Jaceguai",,-22.915808,-43.231818,,,0,,,,
2034O00016C0,,Palácio do Alto,,-22.954510,-43.263710,,,0,,,,
2035O00074C0,,Praça Varnhagem,,-22.917980,-43.234696,,,0,,,,
2034O00031C0,,Raimundo Castro Maia,,-22.950344,-43.261880,,,0,,,,
2033O00217C0,,João Alfredo,,-22.931375,-43.245786,,,0,,,,
2034L00039C0,,São Miguel,,-22.946807,-43.257169,,,0,,,,
2033O00221C0,,Conde de Bonfim,,-22.936470,-43.245630,,,0,,,,
2033O00254C0,,Casa Branca,,-22.936476,-43.246842,,,0,,,,
2033O00253C0,,Livreiro Francisco Alves,,-22.937880,-43.249018,,,0,,,,
2033O00252C0,,Livreiro Francisco Alves,,-22.938137,-43.249194,,,0,,,,
2033O00187C0,,Club Municipal,,-22.920869,-43.217647,,,0,,,,
2035O00086C0,,Mata Machado :: Pista Central,,-22.913135,-43.227150,,,0,,,,
2035O00091C0,,Dona Zulmira,,-22.916618,-43.235029,,,0,,,,
2035O00061C0,,Mariz e Barros,,-22.915860,-43.222600,,,0,,,,
2035O00095C0,,Sergipe,,-22.911680,-43.218765,,,0,,,,
2035O00094C0,,Teixeira Soares,,-22.910634,-43.220078,,,0,,,,
2035O00052C0,,Visconde de Cairu,,-22.915290,-43.220910,,,0,,,,
2035O00051C0,,Campos Sales,,-22.914480,-43.219550,,,0,,,,
2035O00093C0,,Moraes e Silva,,-22.912351,-43.221392,,,0,,,,
2035O00050C0,,Instituto Superior de Educação - ISERJ,,-22.913500,-43.217770,,,0,,,,
2033O00229C0,,Maracanã,,-22.919985,-43.233785,,,0,,,,
2035O00092C0,,Mariz e Barros,,-22.913561,-43.219673,,,0,,,,
2033O00244S2,9NWD,"BRS 2,3,4: Almirante Cóchrane",,-22.918427,-43.224324,,,0,,,,
2033O00183C0,,Araújos,,-22.925011,-43.226231,,,0,,,,
2033O00184C0,,Rego Lopes,,-22.924276,-43.223770,,,0,,,,
2033O00186C0,,Araújo Pena,,-22.921477,-43.219876,,,0,,,,
2033O00189C0,,Matoso,,-22.918276,-43.212230,,,0,,,,
2033O00211C0,,Hospital Casa Evangélico,,-22.929227,-43.231453,,,0,,,,
2033O00199C0,,General Roca,,-22.923546,-43.233767,,,0,,,,
2033O00223C0,,General Roca,,-22.923148,-43.234251,,,0,,,,
2033O00233C0,,General Espírito Santo Cardoso,,-22.929290,-43.243333,,,0,,,,
2034O00012C0,,Doutor Catrambi,,-22.946834,-43.259230,,,0,,,,
2034O00037C0,,São Miguel,,-22.946156,-43.257789,,,0,,,,
2035O00056C0,,Centro Federal de Educação Tecnológica - CEFET-RJ,,-22.912646,-43.224783,,,0,,,,
2035O00049C0,,Ponto Final: São Cristovão :: Linhas 460 e 461,,-22.909844,-43.221063,,,0,,,,
2034O00068C0,,Estrada Velha da Tijuca,,-22.957177,-43.267772,,,0,,,,
2035O00066C0,,Maracanã - Acesso Leste,,-22.913510,-43.227710,,,0,,,,
2035O00071C0,,Professor Eurico Rabelo :: Pista Central,,-22.915485,-43.229139,,,0,,,,
2035O00060C0,,Teixeira Soares,,-22.911490,-43.217520,,,0,,,,
2035O00073C0,,Visconde de Itamarati,,-22.919010,-43.233230,,,0,,,,
2035O00068C0,,Professor Eurico Rabelo,,-22.915470,-43.229440,,,0,,,,
2035O00076C0,,São Francisco Xavier,,-22.913400,-43.233900,,,0,,,,
2035O00047C0,,Felipe Camarão,,-22.912755,-43.235793,,,0,,,,
2035O00015C0,,UERJ,,-22.911600,-43.237270,,,0,,,,
2035O00048C0,,Luiz de Matos,,-22.910828,-43.237750,,,0,,,,
2034O00050C0,,Gávea Pequena,,-22.970260,-43.280893,,,0,,,,
2034O00051C0,,Gávea Pequena,,-22.970080,-43.280960,,,0,,,,
2034O00062C9,,Escola Municipal Menezes Vieira,,-22.965342,-43.277444,,,0,,,,
2034O00066C9,,Açude,,-22.964331,-43.276925,,,0,,,,
2034O00056C0,,Ferreira de Almeida,,-22.964150,-43.276360,,,0,,,,
2034O00058C0,,Amado Nervo,,-22.963010,-43.275260,,,0,,,,
2034O00057C0,,Amado Nervo,,-22.963220,-43.275220,,,0,,,,
2034O00064C9,,Praça Afonso Viseu,,-22.961496,-43.273309,,,0,,,,
2034O00059C0,,Praça Afonso Viseu,,-22.961570,-43.273180,,,0,,,,
2034O00071C0,,Pedra Bonita,,-22.976015,-43.278423,,,0,,,,
2034O00072C0,,Pedra Bonita,,-22.976217,-43.278486,,,0,,,,
2034O00070C0,,Gávea Pequena,,-22.977978,-43.277495,,,0,,,,
2035O00062C0,,General Canabarro,,-22.913973,-43.224796,,,0,,,,
2034O00073C0,,Gávea Pequena,,-22.978625,-43.277157,,,0,,,,
2035O00079C0,,Sergipe,,-22.910814,-43.218280,,,0,,,,
2036O00092C0,,Torres Homem,,-22.915270,-43.251800,,,0,,,,
2037I00052C0,,Uruguai,,-22.926232,-43.245915,,,0,,,,
2037O00031C0,,Agostinho Menezes,,-22.924040,-43.241280,,,0,,,,
2037O00029C0,,Amaral,,-22.924770,-43.243600,,,0,,,,
2037O00024C0,,Gastão Penalva,,-22.925860,-43.252860,,,0,,,,
2036O00070C0,,Barão de Mesquita,,-22.923570,-43.237750,,,0,,,,
2038O00004C0,,Gastão Penalva,,-22.925660,-43.253970,,,0,,,,
2036O00059C0,,Jerônimo de Lemos,,-22.919230,-43.259810,,,0,,,,
2037O00045C0,,Hospital Federal do Andaraí,,-22.927980,-43.251960,,,0,,,,
2037O00041C0,,Gastão Penalva,,-22.927040,-43.253750,,,0,,,,
2037O00044C0,,Dona Amélia,,-22.929649,-43.253229,,,0,,,,
2037O00042C0,,Dona Amélia,,-22.928080,-43.254450,,,0,,,,
2034O00045C0,,"Furnas, 1805",,-22.976690,-43.289640,,,0,,,,
2034O00044C0,,"Furnas, 1805",,-22.976390,-43.288910,,,0,,,,
2034O00052C0,,CMS Nicola Albano,,-22.965726,-43.277491,,,0,,,,
2034O00043C0,,Mata Machado,,-22.974330,-43.285860,,,0,,,,
2034O00053C0,,CMS Nicola Albano,,-22.965638,-43.277233,,,0,,,,
2034O00047C0,,EDI José da Silva Araújo,,-22.978410,-43.291730,,,0,,,,
2038O00047C0,,Engenheiro Richard,,-22.922930,-43.266740,,,0,,,,
2038O00046C0,,Engenheiro Richard,,-22.923630,-43.266290,,,0,,,,
2038O00045C0,,Grajaú,,-22.924690,-43.265780,,,0,,,,
2038O00044C0,,Grajaú,,-22.925600,-43.265490,,,0,,,,
2037O00033C0,,Supermercados Guanabara - Andaraí,,-22.922819,-43.248456,,,0,,,,
2037O00036C0,,Barão de São Francisco,,-22.923550,-43.250480,,,0,,,,
2037O00035C0,,Barão de São Francisco,,-22.923940,-43.250700,,,0,,,,
2037O00028C0,,Ladislau Neto,,-22.923760,-43.246690,,,0,,,,
2037O00057C0,,Uruguai,,-22.922248,-43.247306,,,0,,,,
2037O00054C0,,Amaral,,-22.921470,-43.245860,,,0,,,,
2036O00086C0,,Silva Teles,,-22.920350,-43.244410,,,0,,,,
2036O00076C0,,Araújo Lima,,-22.919810,-43.242920,,,0,,,,
2036O00075C0,,Pereira Neto,,-22.918470,-43.240260,,,0,,,,
2036O00074C0,,Maxwell,,-22.918600,-43.239530,,,0,,,,
2036O00073C0,,Dona Maria,,-22.920060,-43.238650,,,0,,,,
2036O00068C0,,Dona Maria,,-22.920480,-43.239730,,,0,,,,
2036O00069C0,,Antônio Salema,,-22.922060,-43.238720,,,0,,,,
2036O00071C0,,Baltazar Lisboa,,-22.922710,-43.237050,,,0,,,,
2035O00078C0,,Estação São Cristóvão :: Sul,,-22.909899,-43.220330,,,0,,,,
2037O00026C0,,Carvalho Alvim,,-22.927680,-43.244330,,,0,,,,
2037O00025C0,,Tijolinho,,-22.924270,-43.252310,,,0,,,,
2034O00046C0,,EDI José da Silva Araújo,,-22.977800,-43.291210,,,0,,,,
2034O00048C0,,Capitão Campos,,-22.979493,-43.292734,,,0,,,,
2035O00042C0,,Residencial Mangueira I e II,,-22.908756,-43.234655,,,0,,,,
2035O00072C0,,Comandante Prat,,-22.917413,-43.231038,,,0,,,,
2035O00077C0,,Radialista Waldir Amaral,,-22.911776,-43.234086,,,0,,,,
2036O00017C2,,Escola Municipal Noel Rosa,,-22.915554,-43.262655,,,0,,,,
2037O00032C0,,Supermercados Guanabara - Andaraí,,-22.922927,-43.249247,,,0,,,,
2036O00094C0,,Maxwell,,-22.916110,-43.236880,,,0,,,,
2036O00079C0,,Pereira Nunes,,-22.916490,-43.238760,,,0,,,,
2036O00006S9,4AZE,"BRS 4,5,I: Gonzaga Bastos",,-22.917071,-43.242410,,,0,,,,
2036O00045S9,1LVC,"BRS 4,5,I: Visconde de Abaeté",,-22.915260,-43.243740,,,0,,,,
2036O00044S9,FU3N,"BRS 4,5,I: Silva Pinto",,-22.918032,-43.247493,,,0,,,,
2036O00056S9,3GJF,"BRS 4,5,I: Barão de São Francisco 2",,-22.918829,-43.251925,,,0,,,,
2036O00003S9,FL96,"BRS 4,5,I: Mendes Tavares",,-22.919245,-43.254192,,,0,,,,
2036O00014S9,2HSG,"BRS 2,6,7: Barão de São Francisco",,-22.916290,-43.252600,,,0,,,,
2036O00015S9,2L8R,"BRS 4,5,I: Petrocochino",,-22.916438,-43.253211,,,0,,,,
2036O00053S9,2L88,"BRS 2,6,7: Viana Drummond",,-22.916893,-43.256594,,,0,,,,
2036O00043S9,EN4C,"BRS 4,5,I: Emilia Sampaio",,-22.919880,-43.257620,,,0,,,,
2036O00054S9,2PVS,"BRS 4,5,I: INCA",,-22.916916,-43.257164,,,0,,,,
2036O00001S9,3A7T,"BRS 2,6,7: José Vicente",,-22.920008,-43.258301,,,0,,,,
2036O00055S0,Q3VX,"BRS 2,5,7,I: Barão do Bom Retiro",,-22.916988,-43.261141,,,0,,,,
2036O00049S0,5GT3,"BRS 5,6: Luiz de Matos",,-22.910110,-43.238400,,,0,,,,
2038O00043C1,,Visconde de Santa Isabel,,-22.917550,-43.262130,,,0,,,,
2036O00078C0,,Gonzaga Bastos,,-22.918090,-43.241950,,,0,,,,
2036O00088C0,,Professor Manoel de Abreu,,-22.914929,-43.235468,,,0,,,,
2037O00019C0,,Ponto Final: Andaraí :: Leopoldo,,-22.930780,-43.254158,,,0,,,,
2036O00018C0,,Ponto Final: Vila Isabel :: Praça Barão de Drummond,,-22.916241,-43.251192,,,0,,,,
2036O00050S9,1LBP,"BRS 2,3,6,7: Gonzaga Bastos",,-22.915228,-43.243439,,,0,,,,
2036O00013S9,1T1W,"BRS 2,3,4,5,6,7,I: Souza Franco",,-22.915770,-43.246440,,,0,,,,
2036O00058S9,FYF6,"BRS 2,3,4,5,6,7,I: Souza Franco",,-22.917543,-43.244913,,,0,,,,
2038O00053C0,,Escola Municipal Duque de Caxias,,-22.918610,-43.265160,,,0,,,,
2038O00081C0,,Grajaú Tênis Clube,,-22.921470,-43.261610,,,0,,,,
2038O00065C0,,Juiz de Fora,,-22.924760,-43.259010,,,0,,,,
2038O00062C0,,Praça Nobel,,-22.926390,-43.259900,,,0,,,,
2038O00061C0,,Praça Nobel,,-22.926850,-43.258990,,,0,,,,
2038O00090C0,,Sá Viana,,-22.927083,-43.260664,,,0,,,,
2038O00071C0,,Grajaú,,-22.922465,-43.258514,,,0,,,,
2038O00059C0,,Rosa e Silva,,-22.925410,-43.262290,,,0,,,,
2038O00088C0,,Borda do Mato,,-22.924797,-43.261727,,,0,,,,
2038O00058C0,,Bambuí,,-22.924860,-43.262205,,,0,,,,
2038O00093C0,,Julio Furtado,,-22.924822,-43.262468,,,0,,,,
2038O00052C0,,Julio Furtado,,-22.919770,-43.264710,,,0,,,,
3039O00014C0,,Mandela II,,-22.884280,-43.248780,,,0,,,,
3039O00010C0,,Diogo de Vasconcelos,,-22.875320,-43.252130,,,0,,,,
2038O00094C0,,Professor Valadares,,-22.920333,-43.266117,,,0,,,,
2038O00060C0,,Henrique Morize,,-22.926977,-43.260913,,,0,,,,
2038O00051C0,,Caruaru,,-22.920390,-43.267920,,,0,,,,
2038O00049C0,,Grajaú Country Club,,-22.921360,-43.267450,,,0,,,,
2038O00050C0,,Grajaú Country Club,,-22.921200,-43.267400,,,0,,,,
2038O00048C0,,Itabaiana,,-22.922560,-43.266780,,,0,,,,
2038O00056C0,,Canavieiras,,-22.925890,-43.264630,,,0,,,,
2038O00055C0,,Canavieiras,,-22.926180,-43.264740,,,0,,,,
2038O00063C0,,Itabaiana,,-22.920430,-43.261260,,,0,,,,
2038O00064C0,,Borda do Mato,,-22.923210,-43.259990,,,0,,,,
2038O00072C0,,Araxá,,-22.920715,-43.258904,,,0,,,,
2038O00095C0,,Praça Malvino Reis,,-22.919683,-43.261361,,,0,,,,
2038O00067C0,,Botucatu,,-22.925670,-43.255000,,,0,,,,
2038O00068C0,,Botucatu,,-22.924240,-43.253960,,,0,,,,
2036O00004S9,3FP6,"BRS 2,6,7: Barão de São Francisco 1",,-22.918919,-43.252401,,,0,,,,
2036O00052S9,2DAX,"BRS 4,5,I: Barão de Drummond",,-22.916318,-43.249274,,,0,,,,
2036O00085C0,,Teodoro da Silva,,-22.918438,-43.254055,,,0,,,,
2038O00092C0,,Bambuí,,-22.925886,-43.262217,,,0,,,,
2038O00054C0,,Canavieiras,,-22.919542,-43.267432,,,0,,,,
2038O00074C0,,Barão do Bom Retiro,,-22.919270,-43.262170,,,0,,,,
3039O00008C0,,Fiocruz,,-22.877960,-43.241450,,,0,,,,
3039O00005C0,,Refinaria de Manguinhos,,-22.884006,-43.235933,,,0,,,,
3039O00009C0,,Parque Vitória,,-22.885920,-43.234890,,,0,,,,
2038O00073C0,,Marechal Jofre,,-22.918240,-43.263050,,,0,,,,
3039O00001C2,,EDI Doutor Antônio Fernandes Figueira,,-22.883400,-43.253410,,,0,,,,
3039O00012C1,,Dom Helder Câmara,,-22.882640,-43.254050,,,0,,,,
3039O00003C2,,Cesar Marques,,-22.878430,-43.255170,,,0,,,,
2154O00009C0,,Praça da UPA,,-22.989476,-43.252177,,,0,,,,
2154O00012C0,,Biblioteca Parque da Rocinha,,-22.988583,-43.249016,,,0,,,,
2154O00022C0,,Biblioteca Parque da Rocinha,,-22.988616,-43.248896,,,0,,,,
2038O00076C0,,Araxá,,-22.921930,-43.263310,,,0,,,,
2038O00075C0,,Mearim,,-22.921407,-43.261923,,,0,,,,
2154O00018C0,,Ápia,,-22.990563,-43.252328,,,0,,,,
3040O00027C0,,Faculdade Unisuam,,-22.866830,-43.254100,,,0,,,,
3040O00047C2,,Ponto Final: Bonsucesso :: Linha 920,,-22.867804,-43.256135,,,0,,,,
2036O00057S9,3JH6,"BRS 2,3,6,7: Luís Barbosa",,-22.918150,-43.248176,,,0,,,,
3039O00015C0,,Comunidade Nelson Mandela,,-22.882610,-43.249400,,,0,,,,
3039O00017C0,,Belisário Penna,,-22.878501,-43.250884,,,0,,,,
3040O00005C0,,Piumbi,,-22.863002,-43.256953,,,0,,,,
2154O00013C0,,Dionéia,,-22.987873,-43.247742,,,0,,,,
2154O00021C0,,EDI Professor Caseiro Ribeiro,,-22.987827,-43.246514,,,0,,,,
2038O00078C0,,Ponto Final: Grajaú :: Linha 608,,-22.922968,-43.264453,,,0,,,,
2154O00002C0,,Creche Municipal Castelinho,,-22.987120,-43.246410,,,0,,,,
2154O00019C0,,Portão Vermelho,,-22.986395,-43.247750,,,0,,,,
2154O00016C0,,Creche Municipal Castelinho,,-22.987194,-43.246537,,,0,,,,
2154O00006C0,,Portão Vermelho,,-22.986500,-43.247300,,,0,,,,
2154O00003C0,,CMS Doutor Albert Sabin,,-22.986380,-43.245460,,,0,,,,
2154O00015C0,,CMS Doutor Albert Sabin,,-22.986426,-43.245327,,,0,,,,
2154O00004C0,,Setor 199,,-22.985763,-43.243387,,,0,,,,
3039O00024C0,,CTE/CTC Benfica,,-22.887617,-43.246894,,,0,,,,
3039O00025C0,,CTE/CTC Benfica,,-22.886657,-43.247745,,,0,,,,
3040O00016C0,,Olga,,-22.869290,-43.254320,,,0,,,,
3039O00020C0,,Comunidade Nelson Mandela,,-22.883820,-43.249230,,,0,,,,
3040O00048C2,,Paróquia Santa Bernadete,,-22.876321,-43.256784,,,0,,,,
3040O00011C0,,Democráticos,,-22.865710,-43.256190,,,0,,,,
3040O00033C0,,Cardoso de Morais,,-22.865818,-43.255759,,,0,,,,
3040O00020C2,,Estádio Leônidas da Silva,,-22.861646,-43.253842,,,0,,,,
3040O00006C0,,Joana Fontoura,,-22.861548,-43.257448,,,0,,,,
3040O00032C0,,Praça Lopes Ribeiro,,-22.862861,-43.256765,,,0,,,,
3040O00010C0,,Piumbi,,-22.862104,-43.257394,,,0,,,,
2154O00007C0,,Dois,,-22.987840,-43.245090,,,0,,,,
3040O00023C1,,Barros Barreto,,-22.859340,-43.256350,,,0,,,,
3039O00011C0,,Linha Amarela - Saída 8,,-22.872510,-43.251550,,,0,,,,
3040O00040C0,,Linha Amarela - Saída 9,,-22.870530,-43.248990,,,0,,,,
2154O00023C0,,EDI Professor Caseiro Ribeiro,,-22.988135,-43.246845,,,0,,,,
2154O00017C0,,Dionéia,,-22.987963,-43.247830,,,0,,,,
2154O00027C0,,Praça da UPA,,-22.989517,-43.251763,,,0,,,,
2154O00026C0,,Brizolão,,-22.989352,-43.251247,,,0,,,,
2154O00025C0,,Brizolão,,-22.989462,-43.251224,,,0,,,,
3039O00002C2,,GRES Unidos de Manguinhos,,-22.879986,-43.253767,,,0,,,,
3039O00022C1,,GRES Unidos de Manguinhos,,-22.880297,-43.253796,,,0,,,,
3039O00023C1,,Castro Tavares,,-22.874833,-43.252589,,,0,,,,
3040O00030C0,,Olga,,-22.869956,-43.254391,,,0,,,,
3040O00031C0,,Cardoso de Morais,,-22.861078,-43.255964,,,0,,,,
3040O00049C1,,Democráticos,,-22.868183,-43.259115,,,0,,,,
3040O00051C1,,Álvaro do Cabo,,-22.868501,-43.263577,,,0,,,,
3040O00013C1,,Proclamação,,-22.860740,-43.248140,,,0,,,,
3040O00014C1,,Paris,,-22.864710,-43.248190,,,0,,,,
3039O00038C0,,Refinaria de Manguinhos,,-22.884608,-43.236203,,,0,,,,
3039O00021C0,,Parque Vitória,,-22.885570,-43.234520,,,0,,,,
3040O00039C0,,Fernandez Valdez,,-22.868440,-43.259670,,,0,,,,
3040O00038C2,,Magda,,-22.868420,-43.263970,,,0,,,,
3040O00002C2,,Clemenceau,,-22.868383,-43.258079,,,0,,,,
3040O00035C9,,Bruxelas,,-22.867190,-43.251780,,,0,,,,
3040O00017C0,,Bruxelas,,-22.865520,-43.253680,,,0,,,,
3040O00028C0,,Bruxelas,,-22.866210,-43.251980,,,0,,,,
3040O00026C0,,Guilherme Maxwell,,-22.864920,-43.254830,,,0,,,,
3040O00025C0,,Baturité,,-22.863570,-43.254250,,,0,,,,
3040O00018C0,,Bonsucesso,,-22.863180,-43.252830,,,0,,,,
3040O00019C0,,Júlio Ribeiro,,-22.862760,-43.253480,,,0,,,,
3040O00024C1,,Teixeira de Castro,,-22.862030,-43.254590,,,0,,,,
3040O00021C2,,Adail,,-22.860210,-43.253700,,,0,,,,
3040O00022C2,,João Torquato,,-22.857650,-43.252440,,,0,,,,
3040O00001C2,,Marechal Foch,,-22.870290,-43.258360,,,0,,,,
3040O00009C0,,Uranos,,-22.866820,-43.256790,,,0,,,,
3040O00044C0,,Ponto Final: Bonsucesso :: Avenida Roma,,-22.866433,-43.249743,,,0,,,,
3040O00041C0,,Ponto Final: Bonsucesso :: Saint Hilaire,,-22.868063,-43.256081,,,0,,,,
3040O00054C0,,Ponto Final: Bonsucesso :: Clemenceau,,-22.868612,-43.256041,,,0,,,,
3040O00003C2,,Ponto Final: Bonsucesso :: Itaóca,,-22.867720,-43.256840,,,0,,,,
3040O00043C0,,Ponto Final: Bonsucesso :: Dona Isabel (Linhas para Ilha do Governador),,-22.868764,-43.254783,,,0,,,,
3040O00034C0,,Roma,,-22.865320,-43.248950,,,0,,,,
3041O00021C1,,Amarelinho de Ramos,,-22.855650,-43.259110,,,0,,,,
3041O00080C0,,Teixeira Ribeiro,,-22.856383,-43.249661,,,0,,,,
3041O00022C1,,Sargento Pinto de Oliveira,,-22.856800,-43.258180,,,0,,,,
3041O00028C0,,Diomedes Trota,,-22.853260,-43.262420,,,0,,,,
3041O00054C0,,Doutor Noguchi,,-22.859800,-43.258170,,,0,,,,
3041O00048C1,,Instituto Pio XI,,-22.857452,-43.258970,,,0,,,,
3041O00001C0,,Senador Mourão Vieira,,-22.859340,-43.258190,,,0,,,,
3041O00050C2,,Instituto Pio XI,,-22.857473,-43.258799,,,0,,,,
3041O00056C2,,Diomedes Trota,,-22.853242,-43.262230,,,0,,,,
3041O00058C2,,Leonídia,,-22.851650,-43.263943,,,0,,,,
3041O00019C2,,Gonzaga Duque,,-22.848750,-43.258130,,,0,,,,
3041O00064C0,,Platina,,-22.849087,-43.255234,,,0,,,,
3041O00018C2,,Nabor do Rego,,-22.851120,-43.255800,,,0,,,,
3041O00029C0,,Barreiros,,-22.852570,-43.255910,,,0,,,,
3041O00016C2,,Joaquim Gomes,,-22.853100,-43.253090,,,0,,,,
3041O00025C0,,Nabor do Rego,,-22.845540,-43.252400,,,0,,,,
3041O00031C0,,Cardoso de Morais,,-22.854550,-43.260000,,,0,,,,
3041O00020C0,,Estação Ramos :: Norte,,-22.854807,-43.259957,,,0,,,,
3041O00004C0,,Lígia,,-22.853290,-43.263770,,,0,,,,
3041O00067C0,,Itararé,,-22.856432,-43.266290,,,0,,,,
3040O00036C0,,Dona Isabel,,-22.867850,-43.254000,,,0,,,,
3041O00007C0,,Aureliano Lessa,,-22.855418,-43.260078,,,0,,,,
3041O00065C0,,Ibipitanga,,-22.848203,-43.254484,,,0,,,,
3041O00035C0,,Escola Municipal Pierre Janet,,-22.850081,-43.256414,,,0,,,,
3041O00023C0,,Ibipitanga,,-22.848120,-43.254270,,,0,,,,
3041O00024C0,,Engenho da Pedra,,-22.845910,-43.253620,,,0,,,,
3041O00032C0,,Rio Ramos,,-22.852650,-43.257650,,,0,,,,
3040O00052C2,,Estação Bonsucesso,,-22.867246,-43.255591,,,0,,,,
3040O00015C0,,Linha Amarela - Saída 9,,-22.870260,-43.247040,,,0,,,,
3041O00037C0,,Engenho da Pedra,,-22.844650,-43.254750,,,0,,,,
3041O00038C0,,Brasil,,-22.841990,-43.253290,,,0,,,,
3041O00033C0,,Marechal Sousa Menezes,,-22.844860,-43.251240,,,0,,,,
3040O00037C2,,Horácio Picoreli,,-22.867860,-43.265530,,,0,,,,
3041O00034C0,,Diomedes Trota,,-22.854190,-43.264040,,,0,,,,
3040O00007C0,,Arlindo Janot - Saída 9,,-22.871780,-43.249240,,,0,,,,
3040O00042C0,,Teixeira Ribeiro,,-22.855944,-43.248033,,,0,,,,
3041O00027C0,,Leonídia,,-22.851919,-43.263904,,,0,,,,
3042O00011C0,,Filomena Nunes,,-22.837120,-43.258310,,,0,,,,
3041O00010C0,,Gerson Ferreira,,-22.843480,-43.250890,,,0,,,,
3041O00009C0,,Felizardo Fontes,,-22.840600,-43.253550,,,0,,,,
3041O00012C0,,Teixeira de Castro,,-22.849830,-43.247680,,,0,,,,
3041O00013C0,,Rubens Vaz,,-22.853000,-43.247920,,,0,,,,
3041O00014C0,,Sargento Silva Nunes,,-22.854890,-43.247960,,,0,,,,
3041O00060C0,,GRES Imperatriz Leopoldinense,,-22.854914,-43.263031,,,0,,,,
3041O00044C2,,Feliciano de Carvalho,,-22.852209,-43.250313,,,0,,,,
3041O00015C2,,Teixeira Ribeiro,,-22.856390,-43.252230,,,0,,,,
3041O00043C0,,Ponto Final: Ramos :: Piscinão de Ramos,,-22.843433,-43.251348,,,0,,,,
3042O00022C0,,Transfiguração,,-22.849690,-43.277970,,,0,,,,
3042O00009C0,,José Rucas,,-22.849740,-43.276270,,,0,,,,
3042O00048C0,,Euclides Faria,,-22.856617,-43.266964,,,0,,,,
3042O00049C0,,Penedo,,-22.844220,-43.269125,,,0,,,,
3042O00045C0,,Conselheiro Paulino,,-22.855090,-43.265610,,,0,,,,
3042O00076C0,,"Paranapanema, 146",,-22.854610,-43.267240,,,0,,,,
3042O00077C0,,Antônio Rêgo,,-22.852770,-43.269560,,,0,,,,
3042O00081C0,,Delfim Carlos,,-22.849830,-43.272060,,,0,,,,
3042O00079C0,,16º Batalhão de Polícia Militar,,-22.850720,-43.270990,,,0,,,,
3042O00078C0,,16º Batalhão de Polícia Militar,,-22.850710,-43.271150,,,0,,,,
3042O00004C9,,Paranapanema,,-22.849650,-43.271580,,,0,,,,
3042O00080C0,,Jorge Gonçalves de Araújo,,-22.848990,-43.272830,,,0,,,,
3042O00083C0,,Ministro Moreira de Abreu,,-22.848440,-43.273620,,,0,,,,
3042O00082C0,,Ministro Moreira de Abreu,,-22.848260,-43.273650,,,0,,,,
3042O00007C0,,Merendiba,,-22.848550,-43.274700,,,0,,,,
3042O00023C0,,Barros,,-22.849010,-43.275120,,,0,,,,
3042O00008C0,,Barros,,-22.849180,-43.275530,,,0,,,,
3042O00092C2,,Doutor Alfredo Barcelos,,-22.849076,-43.266314,,,0,,,,
3042O00033C9,,Uranos,,-22.848910,-43.267150,,,0,,,,
3042O00090C1,,Doutor Alfredo Barcelos,,-22.849252,-43.266312,,,0,,,,
3042O00035C0,,Comandante Abreu,,-22.847823,-43.267070,,,0,,,,
3042O00050C0,,Comandante Coimbra,,-22.846640,-43.267660,,,0,,,,
3042O00036C0,,Comandante Coimbra,,-22.846590,-43.267540,,,0,,,,
3042O00086C1,,Etelvina,,-22.846134,-43.267884,,,0,,,,
3042O00074C0,,Filomena Nunes,,-22.844883,-43.267980,,,0,,,,
3042O00012C2,,Engenho da Pedra,,-22.846170,-43.260520,,,0,,,,
3041O00017C2,,João Romariz,,-22.852332,-43.254572,,,0,,,,
3042O00016C9,,Professor Plínio Bastos,,-22.839680,-43.265960,,,0,,,,
3042O00015C9,,Filomena Nunes,,-22.841870,-43.264140,,,0,,,,
3042O00014C9,,Firmino Gameleira,,-22.843030,-43.263190,,,0,,,,
3041O00011C0,,Tambaú,,-22.847834,-43.247621,,,0,,,,
3042O00097C0,,André Azevedo,,-22.843939,-43.262082,,,0,,,,
3042O00096C0,,Engenho da Pedra,,-22.844879,-43.261739,,,0,,,,
3042O00099C0,,Aurélio Garcindo,,-22.848127,-43.268977,,,0,,,,
3042O00088C1,,Delfim Carlos,,-22.847752,-43.267225,,,0,,,,
3042O00075C0,,Estação Olaria,,-22.847660,-43.265792,,,0,,,,
3042O00020C0,,João Silva,,-22.850324,-43.263669,,,0,,,,
3042O00103C0,,Diomedes Trota,,-22.855788,-43.267124,,,0,,,,
3042O00063C9,,Itararé,,-22.856750,-43.267480,,,0,,,,
3042O00062C9,,Blandina Pires,,-22.855150,-43.269570,,,0,,,,
3042O00102C0,,Armando Sodré,,-22.854221,-43.270771,,,0,,,,
3042O00100C0,,Antônio Rêgo,,-22.853326,-43.271726,,,0,,,,
3042O00101C0,,Antônio Rêgo,,-22.853251,-43.272004,,,0,,,,
3042O00056C9,,GRES Independentes de Olaria,,-22.852543,-43.272186,,,0,,,,
3042O00057C9,,Armando Sodré,,-22.854440,-43.270300,,,0,,,,
3042O00017C9,,Estádio Antônio Mourão Vieira Filho,,-22.840700,-43.267350,,,0,,,,
3042O00104C0,,Aurélio Garcindo,,-22.849510,-43.268207,,,0,,,,
3041O00002C0,,Aureliano Lessa,,-22.855657,-43.259737,,,0,,,,
3042O00001C0,,Cacique de Ramos,,-22.849737,-43.265691,,,0,,,,
3042O00034C0,,Cacique de Ramos,,-22.850013,-43.265535,,,0,,,,
3042O00094C2,,Penedo,,-22.844120,-43.268928,,,0,,,,
3043O00009C0,,Ingaí,,-22.829980,-43.271100,,,0,,,,
3043O00004C0,,Filomena Nunes,,-22.836770,-43.257750,,,0,,,,
3042O00105C0,,Ponto Final: Olaria :: Ministro Moreira de Abreu,,-22.852325,-43.281128,,,0,,,,
3043O00001C0,,Santa Helena,,-22.848530,-43.282040,,,0,,,,
3042O00106C0,,José Muniz,,-22.849563,-43.277906,,,0,,,,
3042O00051C0,,Transfiguração,,-22.850580,-43.277340,,,0,,,,
3042O00109C0,,Transfiguração,,-22.850657,-43.277244,,,0,,,,
3043O00060C0,,Ponto Final: Penha :: Linha 622,,-22.846165,-43.286965,,,0,,,,
3043O00063C9,,Parque Shangai - Santuário da Penha,,-22.842330,-43.277420,,,0,,,,
3043O00100C0,,Ponto Final: Penha :: Linha 621,,-22.846246,-43.286651,,,0,,,,
3043O00113C0,,Praça Marechal Maurício Cardoso,,-22.842390,-43.269360,,,0,,,,
3043O00116C0,,José Maria,,-22.844090,-43.284771,,,0,,,,
3043O00082C0,,Tenente Luis Dorneles,,-22.847500,-43.290690,,,0,,,,
3043O00091C0,,São Sebastião,,-22.835440,-43.261400,,,0,,,,
3043O00038C0,,Penha Shopping,,-22.840080,-43.279781,,,0,,,,
3042O00108C0,,Antônio Rêgo,,-22.852705,-43.269431,,,0,,,,
3043O00103C0,,Curua,,-22.842404,-43.271163,,,0,,,,
3043O00098C0,,Ponto Final: Penha :: Linha 680,,-22.835886,-43.275762,,,0,,,,
3043O00011C9,,Policlínica José Paranhos Fontenelle,,-22.842010,-43.269340,,,0,,,,
3043O00012C0,,Santa Basilissa,,-22.840600,-43.271020,,,0,,,,
3043O00013C0,,Jequiriça,,-22.838900,-43.273940,,,0,,,,
3043O00014C0,,Patagônia,,-22.837671,-43.276318,,,0,,,,
3043O00109C0,,Quito,,-22.838299,-43.277322,,,0,,,,
3043O00037C0,,Estação Penha :: Sul,,-22.840654,-43.277909,,,0,,,,
3043O00023C0,,Conde de Agrolongo,,-22.838940,-43.280040,,,0,,,,
3043O00118C0,,Montevidéu,,-22.834274,-43.274067,,,0,,,,
3043O00080C0,,Jacurutã,,-22.835440,-43.271720,,,0,,,,
3043O00051C0,,Jequiriça,,-22.835920,-43.271120,,,0,,,,
3043O00050C0,,Gruçaí,,-22.834900,-43.272890,,,0,,,,
3043O00046C0,,Guatemala,,-22.831460,-43.275540,,,0,,,,
3043O00047C0,,Colégio Estadual Heitor Lira,,-22.829990,-43.275500,,,0,,,,
3043O00044C0,,Honduras,,-22.833760,-43.277000,,,0,,,,
3043O00043C0,,Panamá,,-22.834760,-43.277640,,,0,,,,
3043O00048C0,,Panamá,,-22.835580,-43.276800,,,0,,,,
3043O00049C0,,Costa Rica,,-22.833580,-43.275530,,,0,,,,
3043O00102C0,,Tenente Araquém Batista,,-22.841237,-43.274245,,,0,,,,
3043O00041C0,,Escola Municipal Conde de Agrolongo,,-22.837960,-43.279680,,,0,,,,
3043O00070C0,,Doutor Luís Gaudie Ley,,-22.843700,-43.283340,,,0,,,,
3043O00024C0,,Estação Penha :: Norte,,-22.840260,-43.277750,,,0,,,,
3043O00045C0,,Costa Rica,,-22.832604,-43.276254,,,0,,,,
3043O00036C0,,Largo da Penha,,-22.841262,-43.275771,,,0,,,,
3043O00117C2,,João de Deus,,-22.842057,-43.273957,,,0,,,,
3042O00111C0,,Darcy Bitencourt Costa,,-22.851388,-43.278198,,,0,,,,
3043O00107C0,,Moreira de Vasconcelos,,-22.834985,-43.275214,,,0,,,,
3042O00112C0,,Ponto Final: Olaria :: Estação Olaria,,-22.847047,-43.265497,,,0,,,,
3043O00010C1,,APA da Fazendinha,,-22.833010,-43.265940,,,0,,,,
3043O00008C0,,APA da Fazendinha,,-22.833590,-43.263700,,,0,,,,
3043O00005C0,,São Sebastião,,-22.834471,-43.262022,,,0,,,,
3043O00002C0,,Vicente Ferreira Mariano,,-22.847720,-43.283900,,,0,,,,
3043O00110C0,,Aurora,,-22.836905,-43.282531,,,0,,,,
3043O00016C0,,Lobo Junior,,-22.834660,-43.281090,,,0,,,,
3043O00033C0,,Viaduto Luiz Carlos da Vila,,-22.835410,-43.281690,,,0,,,,
3043O00034C0,,Santiago,,-22.836280,-43.280850,,,0,,,,
3043O00015C0,,Conde de Agrolongo,,-22.836220,-43.279090,,,0,,,,
3043O00042C0,,Quito,,-22.835880,-43.278350,,,0,,,,
3043O00068C0,,São Dionísio,,-22.844320,-43.280680,,,0,,,,
3043O00067C0,,São João Bernardo,,-22.845630,-43.282450,,,0,,,,
3043O00114C0,,São João Bernardo,,-22.845461,-43.282448,,,0,,,,
3043O00099C0,,Ponto Final: Grotão,,-22.847048,-43.290264,,,0,,,,
1005O00214C0,,Henrique Valadares,,-22.913620,-43.190700,,,0,,,,
3043O00052C0,,Ponto Final: IAPI da Penha,,-22.837156,-43.269823,,,0,,,,
3043O00083C0,,Ponto Final: Penha :: Aimoré,,-22.844015,-43.284501,,,0,,,,
3043O00089C0,,Ponto Final: Penha :: Viaduto Luiz Carlos da Vila (Linha 497),,-22.836488,-43.283441,,,0,,,,
3043O00095C0,,Ponto Final: Penha :: José Rucas (Linhas 623 e 628),,-22.843998,-43.283484,,,0,,,,
3043O00061C0,,Ponto Final: Vila Cruzeiro :: José Rucas,,-22.846571,-43.284697,,,0,,,,
3043O00057C0,,Cajá,,-22.847060,-43.290060,,,0,,,,
3043O00071C0,,Cabreliva,,-22.845810,-43.289080,,,0,,,,
3043O00072C0,,Maragogi,,-22.845210,-43.288500,,,0,,,,
3043O00056C0,,Maragogi,,-22.844984,-43.288382,,,0,,,,
3043O00115C0,,Doutor Luis Gaudie Ley,,-22.842920,-43.283808,,,0,,,,
3043O00119C0,,Brás de Pina,,-22.841160,-43.282121,,,0,,,,
3043O00079C0,,Engenheiro Francisco Passos,,-22.844500,-43.284010,,,0,,,,
3044O00002C2,,Batata,,-22.821798,-43.280654,,,0,,,,
3044O00004C0,,Cascais,,-22.828690,-43.276575,,,0,,,,
3044O00018C0,,Tomás Lopes,,-22.844033,-43.300797,,,0,,,,
3044O00025C0,,Lobo Junior,,-22.829697,-43.277831,,,0,,,,
3044O00026C0,,Praça Almeida Garret,,-22.830270,-43.282730,,,0,,,,
3044O00027C9,,Subestação Light Maturacá,,-22.840680,-43.302310,,,0,,,,
3044O00066C0,,UPA Penha,,-22.838171,-43.286199,,,0,,,,
3045O00005C9,,Colégio Estadual Prof. José de Souza Marques,,-22.828950,-43.299930,,,0,,,,
3045O00013C1,,Schultz Wenk,,-22.819750,-43.284180,,,0,,,,
3044O00003C2,,Alho,,-22.819920,-43.283040,,,0,,,,
3045O00014C0,,Feijão,,-22.820720,-43.282960,,,0,,,,
3044O00056C0,,Lobo Júnior,,-22.826435,-43.275608,,,0,,,,
3044O00001C2,,Lobo Júnior,,-22.825910,-43.275310,,,0,,,,
3044O00072C0,,Cuba,,-22.827876,-43.278346,,,0,,,,
3044O00020C9,,Vicente do Salvador,,-22.840246,-43.296844,,,0,,,,
3044O00024C0,,Flora Lôbo,,-22.837945,-43.287913,,,0,,,,
3044O00047C0,,Lobo Junior,,-22.831990,-43.280480,,,0,,,,
3044O00043C0,,Lusitânia,,-22.831560,-43.280920,,,0,,,,
3044O00046C0,,Camões,,-22.830510,-43.282630,,,0,,,,
3043O00040C9,,Estação Pastor José Santos,,-22.838912,-43.283281,,,0,,,,
3043O00017C9,,Estação Pastor José Santos,,-22.838718,-43.284183,,,0,,,,
3044O00063C1,,Vicente do Salvador,,-22.840216,-43.297170,,,0,,,,
3045O00010C0,,Itabira,,-22.831360,-43.291500,,,0,,,,
3045O00011C9,,Estação Brás de Pina,,-22.830330,-43.293150,,,0,,,,
3043O00035C0,,Estação Ibiapina,,-22.842555,-43.271603,,,0,,,,
3043O00029C0,,São Camilo,,-22.843810,-43.280139,,,0,,,,
3045O00001C9,,Sultana,,-22.836146,-43.306174,,,0,,,,
3043O00108C0,,Quito,,-22.837046,-43.276513,,,0,,,,
3044O00053C9,,Estação Guaporé,,-22.837515,-43.289614,,,0,,,,
3044O00054C9,,Crato,,-22.837897,-43.291945,,,0,,,,
3044O00022C9,,Crato,,-22.838135,-43.291889,,,0,,,,
3044O00071C0,,Cuba,,-22.827968,-43.278588,,,0,,,,
3044O00033C0,,Praça Antônio José de Almeida,,-22.828530,-43.277920,,,0,,,,
3044O00042C0,,Praça Comendador Manuel Gomes,,-22.846220,-43.303330,,,0,,,,
3044O00031C0,,Viaduto Luiz Carlos da Vila,,-22.837670,-43.285550,,,0,,,,
3044O00011C0,,Jitauna,,-22.836326,-43.289402,,,0,,,,
3044O00012C0,,Guaporé,,-22.836630,-43.291400,,,0,,,,
3044O00061C0,,Tapevi,,-22.838070,-43.295370,,,0,,,,
3044O00060C0,,Ibicuí,,-22.838460,-43.297790,,,0,,,,
3044O00059C0,,Guará,,-22.838490,-43.299280,,,0,,,,
3044O00036C0,,Engenheiro Moreira Lima,,-22.839710,-43.299500,,,0,,,,
3044O00028C9,,Aimbere,,-22.840170,-43.299830,,,0,,,,
3044O00034C0,,Cascais,,-22.826680,-43.279760,,,0,,,,
3044O00006C0,,Guatemala,,-22.830700,-43.278180,,,0,,,,
3044L00069C0,,Coimbra,,-22.831494,-43.278844,,,0,,,,
3044O00007C0,,Cintra,,-22.832160,-43.279440,,,0,,,,
3044O00032C0,,Grão Magriço,,-22.833590,-43.280780,,,0,,,,
3044O00070C0,,Enes Filho,,-22.836027,-43.283620,,,0,,,,
3044O00035C0,,Cascais,,-22.828410,-43.275990,,,0,,,,
3045O00002C9,,Brasileia,,-22.835310,-43.303980,,,0,,,,
3045O00004C0,,Ipeuva,,-22.830060,-43.301530,,,0,,,,
3045O00006C9,,Bertioga,,-22.828130,-43.298630,,,0,,,,
3045O00007C9,,Angicos,,-22.826840,-43.295640,,,0,,,,
3045O00008C9,,Quitungo,,-22.826320,-43.295060,,,0,,,,
3045O00012C9,,Idume,,-22.828520,-43.294140,,,0,,,,
3044O00057C0,,Ponto Final: Penha :: Viaduto Luiz Carlos da Vila (Linha 483),,-22.836910,-43.284401,,,0,,,,
3045O00025C9,,Piriá,,-22.829404,-43.288180,,,0,,,,
3045O00028C9,,Japegoá,,-22.824561,-43.288628,,,0,,,,
3045O00059C1,,Previdência Social,,-22.837630,-43.310110,,,0,,,,
3045O00075C2,,Custódia,,-22.832833,-43.317207,,,0,,,,
3046O00005C9,,Rio Apa,,-22.826730,-43.309120,,,0,,,,
3046O00003C0,,Ministro Pinto da Luz,,-22.814860,-43.293580,,,0,,,,
3045O00015C1,,Batata,,-22.822390,-43.280830,,,0,,,,
3045O00056C2,,Alcides Rosa,,-22.835042,-43.308755,,,0,,,,
3046O00029C2,,Pedro Rufino,,-22.830230,-43.309230,,,0,,,,
3046O00030C2,,General Carvalho,,-22.828640,-43.310050,,,0,,,,
3046O00021C2,,Barão de Melgaço,,-22.827010,-43.310886,,,0,,,,
3045O00041C9,,Engenheiro Francelino Mota,,-22.838375,-43.312159,,,0,,,,
3046O00017C9,,Praça Treze de Junho,,-22.823660,-43.301530,,,0,,,,
3045O00029C0,,Boa VIagem,,-22.828360,-43.284810,,,0,,,,
3045O00049C9,,Cintra,,-22.828130,-43.285200,,,0,,,,
3045O00033C9,,Uruará,,-22.824020,-43.288030,,,0,,,,
3044O00065C1,,Estação Pedro Taques,,-22.841507,-43.299206,,,0,,,,
3044O00019C0,,Estação Pedro Taques,,-22.841640,-43.298800,,,0,,,,
3045O00036C9,,Angatuba,,-22.832710,-43.292010,,,0,,,,
3045O00023C9,,Castro Menezes,,-22.831800,-43.291980,,,0,,,,
3045O00022C9,,Estação Brás de Pina,,-22.830640,-43.293040,,,0,,,,
3046O00013C9,,Quitungo,,-22.825277,-43.296441,,,0,,,,
3046O00001C9,,Estação Cordovil,,-22.823810,-43.296090,,,0,,,,
3046O00018C9,,Oliveira Melo,,-22.823180,-43.303930,,,0,,,,
3046O00019C9,,Tenente Palestrina,,-22.824360,-43.306370,,,0,,,,
3046O00007C9,,Tenente Palestrina,,-22.825130,-43.305660,,,0,,,,
3046O00020C9,,Juvêncio de Menezes,,-22.825190,-43.308170,,,0,,,,
3046O00006C9,,Escola Municipal Odilon Braga,,-22.825950,-43.307420,,,0,,,,
3046O00008C9,,Oliveira Melo,,-22.824240,-43.303750,,,0,,,,
3044O00058C0,,Butuí,,-22.838525,-43.301349,,,0,,,,
3046O00011C9,,Cecari,,-22.822257,-43.298810,,,0,,,,
3046O00016C9,,Anhambai,,-22.822990,-43.299970,,,0,,,,
3046O00010C9,,Aragão Gesteira,,-22.823390,-43.300290,,,0,,,,
3045O00051C0,,Escola Municipal Göethe,,-22.825750,-43.286430,,,0,,,,
3045O00064C0,,Escola Municipal Göethe,,-22.825703,-43.286323,,,0,,,,
3044O00041C0,,Tomás Lopes,,-22.843430,-43.300751,,,0,,,,
3045O00071C0,,Tenente Waldemiro Ferreira,,-22.830913,-43.291975,,,0,,,,
3046O00002C0,,Trevo das Missões,,-22.815273,-43.289663,,,0,,,,
3046O00015C9,,Vicente Leite,,-22.822464,-43.299257,,,0,,,,
3045O00020C0,,Engenheiro Francelino Mota,,-22.838400,-43.312330,,,0,,,,
3045O00058C1,,Alcides Rosa,,-22.835057,-43.309059,,,0,,,,
3045O00063C0,,Osmundo Pimentel,,-22.836174,-43.308253,,,0,,,,
3045O00035C9,,Iricumé,,-22.830000,-43.290650,,,0,,,,
3045O00032C9,,Icapó,,-22.830770,-43.289940,,,0,,,,
3045O00030C9,,Quiare,,-22.828240,-43.286300,,,0,,,,
3045O00026C9,,Tailândia,,-22.827410,-43.288290,,,0,,,,
3045O00048C9,,Tailândia,,-22.827630,-43.288490,,,0,,,,
3045O00052C0,,Praça Anhangá,,-22.827480,-43.286040,,,0,,,,
3045O00027C9,,Pindaí,,-22.825710,-43.289420,,,0,,,,
3046O00014C9,,Umanapia,,-22.825090,-43.289570,,,0,,,,
3045O00037C9,,Jacuí,,-22.834650,-43.291440,,,0,,,,
3045O00016C0,,Pequiri,,-22.836880,-43.293000,,,0,,,,
3045O00017C9,,Ápia,,-22.839730,-43.304460,,,0,,,,
3045O00042C0,,Maestro Henrique Vogeler,,-22.837880,-43.313330,,,0,,,,
3045O00019C0,,Olímpio da Mota,,-22.836620,-43.317670,,,0,,,,
3045O00043C9,,Honório de Almeida,,-22.835590,-43.318100,,,0,,,,
3045O00062C9,,São Félix,,-22.833540,-43.318710,,,0,,,,
3045O00038C9,,Suruí,,-22.833610,-43.302490,,,0,,,,
3045O00039C9,,Mendoza,,-22.835500,-43.304760,,,0,,,,
3045O00061C2,,Castro Menezes,,-22.833468,-43.302276,,,0,,,,
3045O00054C9,,Ipeuva,,-22.829780,-43.301480,,,0,,,,
3046O00026C9,,João Henrique,,-22.828380,-43.299150,,,0,,,,
3046O00025C9,,Dourados,,-22.827220,-43.297570,,,0,,,,
3045O00021C9,,Idume,,-22.829030,-43.294060,,,0,,,,
3046O00024C9,,Dante,,-22.820910,-43.298490,,,0,,,,
3046O00012C9,,Major Conrado,,-22.821900,-43.297670,,,0,,,,
3046O00057C0,,CMS José Breves dos Santos,,-22.817219,-43.289659,,,0,,,,
3046O00068C0,,CMS José Breves dos Santos,,-22.817044,-43.289736,,,0,,,,
3048O00031C1,,Saracá,,-22.814801,-43.303782,,,0,,,,
3049O00006C0,,George Bizet,,-22.810145,-43.320957,,,0,,,,
3046O00065C0,,Oitinga,,-22.821428,-43.292393,,,0,,,,
3048O00010C0,,Meriti,,-22.819620,-43.314480,,,0,,,,
3048O00009C0,,Mauro,,-22.819200,-43.310620,,,0,,,,
3047O00037C0,,Japuanga,,-22.819450,-43.309810,,,0,,,,
3047O00013C0,,IBGE,,-22.817710,-43.307070,,,0,,,,
3048O00007C0,,Isidro Rocha,,-22.817090,-43.306990,,,0,,,,
3047O00004C0,,Igaçaba,,-22.814200,-43.296370,,,0,,,,
3045O00031C9,,Piriá,,-22.829852,-43.287469,,,0,,,,
3045O00024C9,,Bento Cardoso,,-22.832190,-43.291120,,,0,,,,
3046O00064C0,,Escola Municipal Roraíma,,-22.823188,-43.295524,,,0,,,,
3046O00039C0,,Escola Municipal Roraíma,,-22.823030,-43.295580,,,0,,,,
3046O00045C0,,Iranduba,,-22.819120,-43.301030,,,0,,,,
3046O00046C0,,Clínica da Família Eidimir Thiago de Souza,,-22.823800,-43.309400,,,0,,,,
3047O00030C0,,Clínica da Família Eidimir Thiago de Souza,,-22.823520,-43.309110,,,0,,,,
3047O00029C0,,Tenente Palestrina,,-22.822240,-43.307400,,,0,,,,
3047O00027C0,,Japobim,,-22.821600,-43.307100,,,0,,,,
3047O00026C0,,Amadeu Amaral,,-22.820570,-43.306120,,,0,,,,
3047O00025C0,,Amadeu Amaral,,-22.819960,-43.305620,,,0,,,,
3047O00005C9,,Cordovil,,-22.817660,-43.303710,,,0,,,,
3047O00024C0,,Álvaro de Macedo,,-22.818920,-43.304240,,,0,,,,
3047O00002C9,,Estação Parada de Lucas,,-22.816680,-43.300910,,,0,,,,
3047O00010C0,,Bulhões Marcial,,-22.816080,-43.301690,,,0,,,,
3048O00016C9,,Tinharé,,-22.814440,-43.301220,,,0,,,,
3048O00001C9,,Otranto,,-22.813480,-43.301130,,,0,,,,
